ORISPL,NAMEPCAP,GENNTAN,weighted_coal_CAPFAC,weighted_coal_AGE,coal_FUELS,num_coal_GENS,YEAR,NONcoal_FUELS,PNAME,PLGENACL,PLSO2AN,PLPRMFL,PLCLPR,SECTOR,FIPSST,FIPSCNTY,LAT,LON
3.0,1770.7,8041980.0,0.5648572728233594,43.239057999661554,"['BIT', 'BIT', 'BIT', 'BIT', 'BIT']",5,2009,"['NG', 'NG']",Barry,7947703.984,37109.314,BIT,56.4191,not reported,1,97.0,31.0069,-88.0103
7.0,138.0,263330.0,0.2990987688451753,60.0,"['BIT', 'BIT']",2,2009,0,Gadsden,218328.65,2631.8127,BIT,82.9107,not reported,1,55.0,34.0128,-85.9708
8.0,1416.7,5207454.0,0.5016030941991999,44.61671490082608,"['BIT', 'BIT', 'BIT', 'BIT', 'BIT']",5,2009,0,Gorgas,5198072.952,5027.653,BIT,99.8199,not reported,1,127.0,33.6446,-87.2003
10.0,568.4,2364684.0,0.5052824192999994,43.52638986629131,"['BIT', 'BIT']",2,2009,0,Greene County,2349928.164,31604.482,BIT,94.3169,not reported,1,63.0,32.6017,-87.7811
26.0,2012.8,8033064.0,0.48242504932115565,42.0,"['BIT', 'BIT', 'BIT', 'BIT', 'BIT']",5,2009,['DFO'],E C Gaston,8014846.764,102980.7995,BIT,99.7645,not reported,1,117.0,33.2442,-86.4567
47.0,1350.0,2939031.0,0.2616998574019805,49.92592592592587,"['BIT', 'BIT', 'BIT', 'BIT', 'BIT']",5,2009,0,Colbert,2917660.183,16524.592,BIT,99.2333,not reported,1,33.0,34.7439,-87.8486
50.0,1968.6,4688202.0,0.3628649965594486,50.3820989535709,"['BIT', 'BIT', 'BIT', 'BIT', 'BIT', 'BIT', 'BIT', 'BIT']",8,2009,0,Widows Creek,4677183.31,12861.358,BIT,99.765,not reported,1,71.0,34.8825,-85.7547
51.0,720.7,4465132.0,0.7073,22.999999999999773,['LIG'],1,2009,0,Dolet Hills,4451843.365,11720.507,LIG,99.7024,not reported,22,31.0,32.0306,-93.5692
56.0,538.0,3026254.0,0.659139609233065,31.226765799256555,"['BIT', 'BIT', 'BIT']",3,2009,0,Charles R Lowman,3014524.997,5644.99,BIT,99.6124,not reported,1,129.0,31.4858,-87.9106
59.0,109.8,591667.0,0.6151,27.0,['SUB'],1,2009,0,Platte,591667.0,2679.396,SUB,100.0,not reported,31,79.0,40.8538,-98.3481
60.0,76.3,466497.0,0.6979,28.0,['SUB'],1,2009,0,Whelan Energy Center,466137.988,2001.387,SUB,99.923,not reported,31,1.0,40.5806,-98.3106
79.0,27.5,209379.0,0.8939342183313511,40.27272727272725,"['SUB', 'SUB', 'SUB']",3,2009,0,Aurora Energy LLC Chena,209379.0,649.0674,SUB,100.0,not reported,2,90.0,64.8461,-147.7286
87.0,257.0,1835862.0,0.8154999999999999,25.0,['SUB'],1,2009,0,Escalante,1831276.159,1308.302,SUB,99.7502,not reported,35,31.0,35.4159,-108.082
108.0,348.7,2655821.0,0.8694000000000001,26.0,['SUB'],1,2009,0,Holcomb,2648578.438,1948.292,SUB,99.7273,not reported,20,55.0,37.9306,-100.9725
113.0,1128.8,7236124.0,0.737415851041248,30.956591070163086,"['BIT', 'BIT', 'BIT', 'BIT']",4,2009,0,Cholla,7231600.473,7955.926,SUB,99.9375,not reported,4,17.0,34.9394,-110.3033
126.0,173.3,374389.0,0.2466,42.0,['SUB'],1,2009,"['NG', 'NG', 'NG']",H Wilson Sundt Generating Station,135564.542,642.2994,NG,19.7027,not reported,4,19.0,32.16,-110.9047
127.0,720.0,2813612.0,0.4461,23.0,['SUB'],1,2009,0,Oklaunion,2803103.069,2684.037,SUB,99.6265,not reported,48,487.0,34.0825,-99.1753
130.0,2390.1,14619848.0,0.7491436346397035,10.046274214467985,"['BIT', 'BIT', 'BIT', 'BIT']",4,2009,0,Cross,14220893.613,7156.835,BIT,97.2711,not reported,45,15.0,33.3692,-80.1119
136.0,1429.2,7097411.0,0.5961202802261274,24.499999999999773,"['BIT', 'BIT']",2,2009,0,Seminole,7065540.17,20576.961,BIT,99.551,not reported,12,107.0,29.7333,-81.6339
160.0,408.0,2007831.0,0.5623891916202111,30.0,"['SUB', 'SUB']",2,2009,"['NG', 'NG']",Apache Station,1957025.127,4187.682,SUB,93.2094,not reported,4,3.0,32.0619,-109.8931
165.0,1010.0,6840435.0,0.7755521099900811,25.94059405940584,"['SUB', 'SUB']",2,2009,0,GRDA,6834236.526,18012.943,SUB,99.9094,not reported,40,97.0,36.1906,-95.2889
207.0,1358.0,8508728.0,0.7223872006250522,21.5,"['BIT', 'BIT']",2,2009,0,St Johns River Power Park,8487000.821,9083.393,BIT,99.7446,not reported,12,31.0,30.4311,-81.5508
298.0,1849.8,11952333.0,0.7411230629869499,23.48275489242087,"['LIG', 'LIG']",2,2009,0,Limestone,11932568.169,20848.542,LIG,99.8346,not reported,48,293.0,31.4219,-96.2525
384.0,1320.0,6192793.0,0.5356807095764383,43.5,"['SUB', 'SUB']",2,2009,0,Joliet 29,6170033.611,11707.8547,SUB,99.6325,not reported,17,197.0,41.4947,-88.125
462.0,43.7,254720.0,0.672893938442211,51.7116704805494,"['BIT', 'BIT']",2,2009,0,W N Clark,254338.902,1389.0487,BIT,99.8504,not reported,8,43.0,38.4344,-105.25
465.0,158.0,783376.0,0.5743794055472723,55.164556962025245,"['SUB', 'SUB']",2,2009,0,Arapahoe,778555.228,2645.695,SUB,99.3846,not reported,8,31.0,39.67,-105.0028
468.0,75.0,379816.0,0.5788565294774313,50.0,"['BIT', 'BIT']",2,2009,0,Cameo,371789.703,2409.6105,BIT,97.8868,not reported,8,77.0,39.1486,-108.3189
469.0,801.3,3210172.0,0.46365012102155273,45.396605516036516,"['BIT', 'BIT', 'BIT', 'BIT']",4,2009,0,Cherokee,3122482.472,5712.836,BIT,97.2684,not reported,8,1.0,39.8034,-104.9458
470.0,778.5,4705019.0,0.6900219946826994,34.9826589595375,"['SUB', 'SUB']",2,2009,0,Comanche,4635432.364,2800.7473,SUB,98.521,not reported,8,101.0,38.2081,-104.5747
477.0,191.7,1108389.0,0.66,45.0,['BIT'],1,2009,['NG'],Valmont,1105633.455,1776.3011,BIT,99.6388,not reported,8,13.0,40.0195,-105.202
492.0,257.0,1843433.0,0.8233170478666705,39.085603112840545,"['BIT', 'BIT', 'BIT']",3,2009,0,Martin Drake,1837104.546,7980.049,BIT,99.6567,not reported,8,41.0,38.8244,-104.8331
508.0,43.5,0.0,0.0,21.264367816091863,"['SUB', 'SUB']",2,2009,0,Lamar Plant,32387.0,272.2972,SUB,67.2795,not reported,8,99.0,38.0921,-102.6148
511.0,3.7,0.0,0.0,59.0,['BIT'],1,2009,0,Trinidad,0.0,0.0075,DFO,0.0,not reported,8,71.0,37.1427,-104.5501
525.0,465.4,3229660.0,0.7987732059411826,37.490760636012055,"['BIT', 'BIT']",2,2009,0,Hayden,3225460.162,2429.622,BIT,99.87,not reported,8,107.0,40.4856,-107.185
527.0,113.8,647543.0,0.6527799639560616,27.701230228471104,"['BIT', 'BIT', 'BIT', 'BIT']",4,2009,0,Nucla,644841.719,1171.005,BIT,99.5828,not reported,8,85.0,38.2387,-108.5083
564.0,929.0,5978775.0,0.7348746567147953,17.5,"['BIT', 'BIT']",2,2009,0,Stanton Energy Center,5882973.107,4596.8067,BIT,98.0519,not reported,12,95.0,28.4836,-81.1686
568.0,400.0,1008528.0,0.2878,41.0,['SUB'],1,2009,['JF'],Bridgeport Station,994939.512,1272.8691,SUB,98.8294,not reported,9,1.0,41.1706,-73.1843
593.0,251.8,544019.0,0.2742306983763435,46.574265289912546,"['BIT', 'BIT']",2,2009,['RFO'],Edge Moor,441241.684,2291.4024,BIT,75.7991,not reported,10,3.0,39.7372,-75.5033
594.0,782.4,2343588.0,0.3733852089616434,35.848670756646015,"['BIT', 'BIT', 'BIT', 'BIT']",4,2009,['DFO'],Indian River Generating Station,2316794.806,14229.6609,BIT,98.8359,not reported,10,5.0,38.5857,-75.2341
602.0,1370.0,6644359.0,0.5671446994661186,21.5,"['BIT', 'BIT']",2,2009,0,Brandon Shores,6621847.855,32820.566,BIT,99.6612,not reported,24,3.0,39.1792,-76.5383
628.0,2442.7,11137824.0,0.5300573975401298,32.067752896384945,"['BIT', 'BIT', 'BIT', 'BIT']",4,2009,['NUC'],Crystal River,11089602.533,67417.57,BIT,67.1058,not reported,12,17.0,28.9594,-82.7003
641.0,1135.1,3308240.0,0.34090329634488425,39.123337150911766,"['BIT', 'BIT', 'BIT', 'BIT']",4,2009,0,Crist,3249036.724,29377.362,BIT,98.2104,not reported,12,33.0,30.5661,-87.2289
642.0,98.0,1745.0,0.03793060171919771,56.0,"['BIT', 'BIT']",2,2009,0,Scholz,3934.984,84.374,BIT,100.0,not reported,12,63.0,30.6689,-84.8869
643.0,340.0,1446964.0,0.5004530440287388,42.87999999999988,"['BIT', 'BIT']",2,2009,"['DFO', 'NG']",Lansing Smith,1444204.206,11173.088,NG,27.8645,not reported,12,5.0,30.2689,-85.7003
645.0,1822.5,8309942.0,0.5641377573513751,32.799999999999955,"['BIT', 'BIT', 'BIT', 'BIT']",4,2009,['NG'],Big Bend,8273354.515,8988.229,BIT,99.358,not reported,12,57.0,27.7944,-82.4036
663.0,250.7,1182488.0,0.5384,28.0,['BIT'],1,2009,['NG'],Deerhaven Generating Station,1286124.797,5815.849,BIT,88.0932,not reported,12,1.0,29.7586,-82.3883
676.0,363.8,1586177.0,0.4977,27.000000000000227,['BIT'],1,2009,"['NG', 'NG', 'NG', 'NG', 'NG']",C D McIntosh Jr,1584519.854,3874.841,BIT,50.6331,not reported,12,105.0,28.0809,-81.9256
703.0,3498.6,21538281.0,0.7041969259106611,35.86977648202151,"['BIT', 'BIT', 'BIT', 'BIT']",4,2009,['DFO'],Bowen,21528806.959,54811.219,BIT,99.9559,not reported,13,15.0,34.1256,-84.9192
708.0,953.0,3414849.0,0.42248469592652554,45.16474291710392,"['BIT', 'BIT', 'BIT', 'BIT']",4,2009,0,Hammond,3402005.833,893.931,BIT,99.6239,not reported,13,115.0,34.2533,-85.3456
709.0,1746.2,6433027.0,0.4304025002848581,41.40808612988212,"['BIT', 'BIT', 'BIT', 'BIT']",4,2009,0,Harllee Branch,6424339.176,60111.002,BIT,99.8649,not reported,13,237.0,33.1942,-83.2994
710.0,598.4,2072706.0,0.3973697351192113,45.5,"['BIT', 'BIT']",2,2009,0,Jack McDonough,2066954.196,15917.263,BIT,99.7264,not reported,13,67.0,33.8244,-84.475
727.0,163.2,20857.0,0.0146,45.0,['BIT'],1,2009,0,Mitchell,22178.64,226.968,BIT,100.0,not reported,13,95.0,31.4444,-84.1322
728.0,1487.3000000000002,4530191.0,0.35709453577122907,44.23122436630183,"['BIT', 'BIT', 'BIT', 'BIT', 'BIT', 'BIT', 'BIT']",7,2009,0,Yates,4304454.384,45486.854,BIT,95.0171,not reported,13,77.0,33.4622,-84.8986
733.0,207.9,956829.0,0.5293254826097454,46.730158730158564,"['BIT', 'BIT', 'BIT']",3,2009,"['NG', 'NG']",Kraft,923977.316,7723.8717,BIT,92.6648,not reported,13,51.0,32.1486,-81.1458
753.0,12.5,147.0,0.0013,52.0,['BIT'],1,2009,['NG'],Crisp Plant,49.349,0.6294,NG,30.8431,not reported,13,321.0,31.8477,-83.9421
856.0,780.3,4892713.0,0.7160404120985637,40.52941176470563,"['SUB', 'SUB', 'SUB']",3,2009,0,E D Edwards,4887741.28,11734.455,SUB,99.8984,not reported,17,143.0,40.5958,-89.6631
861.0,1005.4,4218224.0,0.4812907002567905,39.7076785359061,"['SUB', 'SUB']",2,2009,0,Coffeen,4192342.071,13398.074,SUB,99.3864,not reported,17,135.0,39.0586,-89.4031
863.0,150.0,541237.0,0.4153097585715685,55.5,"['SUB', 'SUB']",2,2009,0,Hutsonville,537923.293,1900.275,SUB,99.3878,not reported,17,33.0,39.1333,-87.6597
864.0,354.3,530603.0,0.24805856242802998,52.73271239062956,"['BIT', 'BIT', 'SUB']",3,2009,0,Meredosia,522668.263,2145.878,SUB,99.9098,not reported,17,137.0,39.8194,-90.5647
867.0,597.4000000000001,2527963.0,0.4849772801658885,49.201707398728104,"['SUB', 'SUB']",2,2009,0,Crawford,2513845.734,7107.616,SUB,99.4416,not reported,17,31.0,41.8278,-87.7236
874.0,360.4,1310677.0,0.4152,50.0,['SUB'],1,2009,0,Joliet 9,1306539.344,3441.098,SUB,99.6843,not reported,17,197.0,41.4931,-88.1153
876.0,1319.0,6849578.0,0.5932583091104299,41.5,"['SUB', 'SUB']",2,2009,0,Kincaid Generation LLC,6843562.036,17041.651,SUB,99.9122,not reported,17,21.0,39.5906,-89.4964
879.0,1785.6,9334808.0,0.597471239044231,35.5,"['SUB', 'SUB']",2,2009,0,Powerton,9329690.058,22124.962,SUB,99.9452,not reported,17,179.0,40.5408,-89.6786
883.0,681.7,4171483.0,0.6986636584878807,48.915211970075234,"['SUB', 'SUB']",2,2009,0,Waukegan,4155872.096,11392.034,SUB,99.6172,not reported,17,97.0,42.3833,-87.8133
884.0,1268.8,5111395.0,0.46569280263020174,49.75535939470387,"['SUB', 'SUB', 'SUB', 'SUB']",4,2009,0,Will County,5079991.044,12602.65,SUB,99.3856,not reported,17,197.0,41.6334,-88.0626
886.0,374.0,1661258.0,0.5071,41.0,['SUB'],1,2009,0,Fisk Street,1653571.725,4220.049,SUB,99.514,not reported,17,31.0,41.8508,-87.6533
887.0,1099.8,7088313.0,0.7523617577835517,54.99999999999977,"['SUB', 'SUB', 'SUB', 'SUB', 'SUB', 'SUB']",6,2009,0,Joppa Steam,7088291.242,24238.0,SUB,99.9997,not reported,17,127.0,37.2103,-88.8606
889.0,1894.1,12185940.0,0.7418719229866552,36.320099255583045,"['SUB', 'SUB', 'SUB']",3,2009,0,Baldwin Energy Complex,12174302.595,24843.282,SUB,99.9045,not reported,17,157.0,38.205,-89.855
891.0,488.0,2022506.0,0.4731,31.0,['SUB'],1,2009,0,Havana,2017562.413,5017.757,SUB,99.7556,not reported,17,125.0,40.2797,-90.0775
892.0,306.3,2129126.0,0.7946838193230463,51.46914789422158,"['SUB', 'SUB']",2,2009,0,Hennepin Power Station,2125525.079,6165.299,SUB,99.8309,not reported,17,155.0,41.3017,-89.3136
897.0,182.3,646801.0,0.41490548623146845,53.40318156884268,"['SUB', 'SUB']",2,2009,0,Vermilion,642109.635,2079.454,SUB,99.2747,not reported,17,183.0,40.1781,-87.7481
898.0,500.1,3424004.0,0.7831707315762482,47.249550089981994,"['SUB', 'SUB']",2,2009,0,Wood River,3422978.156,9089.13,SUB,99.97,not reported,17,119.0,38.8639,-90.1325
963.0,667.7,1835615.0,0.38937526725375415,20.16159952074304,"['BIT', 'BIT', 'BIT', 'BIT']",4,2009,0,Dallman,1825132.114,3199.532,BIT,99.4289,not reported,17,167.0,39.7539,-89.6011
976.0,272.0,1725194.0,0.7309822196808011,36.459558823529505,"['WC', 'WC', 'WC', 'BIT']",4,2009,0,Marion,1722750.133,7683.849,BIT,99.3419,not reported,17,199.0,37.6206,-88.955
981.0,613.8,2755906.0,0.9433221498120764,49.56484196806764,"['SUB', 'SUB', 'SUB', 'SUB']",4,2009,0,State Line Energy,2738592.149,9776.037,SUB,99.3718,not reported,18,89.0,41.7072,-87.5217
983.0,1303.2,8353045.0,0.7384700868126535,53.83333333333326,"['SUB', 'SUB', 'SUB', 'SUB', 'SUB', 'SUB']",6,2009,0,Clifty Creek,8346764.263,54475.969,SUB,99.9248,not reported,18,77.0,38.7383,-85.4192
988.0,1100.1,2675226.0,0.3163885574153361,50.42359785473991,"['BIT', 'BIT', 'BIT', 'BIT']",4,2009,0,Tanners Creek,2664896.83,16442.281,SUB,99.6139,not reported,18,29.0,39.0831,-84.8581
990.0,698.0,3828379.0,0.6269313350115022,40.392120343839906,"['BIT', 'BIT', 'BIT']",3,2009,"['DFO', 'DFO']",Harding Street,3822163.861,23598.3429,BIT,99.7062,not reported,18,97.0,39.7119,-86.1975
991.0,301.6,1029491.0,0.4802746783604714,55.20159151193661,"['BIT', 'BIT', 'BIT', 'BIT']",4,2009,['DFO'],Eagle Valley,1022132.527,11091.3885,BIT,99.6297,not reported,18,109.0,39.4851,-86.4176
992.0,23.4,10269.449,0.17994698885013208,69.01709401709354,"['BIT', 'BIT', 'BIT', 'BIT']",4,2009,0,CC Perry K,8652.422,938.7227,BIT,84.254,not reported,18,97.0,39.7631,-86.1667
994.0,1872.8999999999999,11038883.0,0.6778714644316821,32.60558492177893,"['BIT', 'BIT', 'BIT', 'BIT']",4,2009,0,AES Petersburg,11020004.72,40129.1284,BIT,99.8285,not reported,18,125.0,38.5267,-87.2525
995.0,603.5,2388334.0,0.4623382496752967,42.892957746478714,"['BIT', 'BIT']",2,2009,['NG'],Bailly,2370042.991,4903.3947,BIT,99.2179,not reported,18,127.0,41.6433,-87.1225
996.0,383.5,0.0,0.0,46.342894393741744,"['SUB', 'SUB', 'SUB']",3,2009,['NG'],Dean H Mitchell,0.0,0.0085,NG,0.0,not reported,18,89.0,41.6394,-87.4069
997.0,540.0,2104822.0,0.445,35.0,['SUB'],1,2009,0,Michigan City,2094243.641,9429.895,SUB,99.5831,not reported,18,91.0,41.7203,-86.9097
1001.0,1062.0,5192306.0,0.5585508333291604,38.0,"['BIT', 'BIT']",2,2009,['NG'],Cayuga,5187509.224,2423.6027,BIT,99.8752,not reported,18,165.0,39.9239,-87.4272
1004.0,109.2,44055.0,0.059849783225513556,58.736263736263936,"['BIT', 'BIT']",2,2009,0,Edwardsport,41806.764,1427.258,BIT,100.0,not reported,18,83.0,38.8067,-87.2472
1008.0,600.0,1842199.0,0.36383287348435206,49.5,"['BIT', 'BIT', 'BIT', 'BIT']",4,2009,0,R Gallagher,1818721.056,26902.477,BIT,98.7255,not reported,18,43.0,38.2636,-85.8381
1010.0,1164.7,3345318.0,0.5663103885191184,43.4712801579808,"['BIT', 'BIT', 'BIT', 'BIT', 'BIT', 'BIT', 'BIT']",7,2009,0,Wabash River,3388351.6829,51134.8764,BIT,99.8563,not reported,18,167.0,39.53,-87.4247
1012.0,368.9,1545614.0,0.5089435370021235,37.96774193548367,"['BIT', 'BIT']",2,2009,0,F B Culley,1501386.524,2050.911,BIT,97.1385,not reported,18,173.0,37.91,-87.3267
1024.0,24.1,1127.0,0.006692546583850932,48.771784232365235,"['BIT', 'BIT']",2,2009,0,Crawfordsville,1127.0,42.004,BIT,100.0,not reported,18,107.0,40.0379,-86.8862
1032.0,43.0,128712.0,0.34563789390266647,47.511627906976855,"['BIT', 'BIT']",2,2009,0,Logansport,128712.0,664.3947,BIT,100.0,not reported,18,17.0,40.7592,-86.3581
1037.0,34.5,10303.0,0.04439198291759682,53.62318840579701,"['BIT', 'BIT']",2,2009,0,Peru,10245.843,169.4846,BIT,99.4452,not reported,18,103.0,40.7551,-86.0575
1040.0,93.9,185879.0,0.2441796243793005,42.32587859424916,"['BIT', 'BIT']",2,2009,0,Whitewater Valley,185341.296,3919.397,BIT,99.7107,not reported,18,177.0,39.8028,-84.8953
1043.0,233.2,1583267.0,0.7777190656408552,39.0,"['BIT', 'BIT']",2,2009,0,Frank E Ratts,1581228.058,23947.582,BIT,99.8712,not reported,18,125.0,38.5201,-87.2662
1046.0,81.2,134543.0,0.23167473298499364,58.01600985221694,"['SUB', 'SUB', 'SUB']",3,2009,0,Dubuque,127758.61,666.2873,SUB,94.9871,not reported,19,61.0,42.506,-90.6527
1047.0,338.5,1275945.0,0.5182717036392634,36.451994091580445,"['SUB', 'SUB', 'SUB', 'SUB']",4,2009,0,Lansing,1273200.012,4941.6864,SUB,99.7835,not reported,19,5.0,43.3359,-91.1672
1048.0,218.4,652507.0,0.3411,42.0,['SUB'],1,2009,['NG'],Milton L Kapp,751467.62,3014.656,SUB,99.905,not reported,19,45.0,41.8081,-90.2345
1058.0,84.7,-13144.0,-0.1,69.09445100354196,"['BIT', 'SUB', 'SUB', 'BIT', 'SUB', 'SUB']",6,2009,0,Sixth Street,0.0,0.0,NG,0.0,not reported,19,113.0,41.9839,-91.6686
1073.0,244.7,44354.0,0.14835382152680704,42.52308949734379,"['SUB', 'SUB', 'SUB', 'SUB']",4,2009,0,Prairie Creek,40626.553,522.1705,SUB,89.5481,not reported,19,113.0,41.9378,-91.6383
1077.0,156.6,463438.0,0.3629151316896758,50.87356321839093,"['SUB', 'SUB', 'SUB']",3,2009,0,Sutherland,407773.978,3079.547,SUB,87.9889,not reported,19,127.0,42.0472,-92.8627
1081.0,141.0,603708.0,0.49019573187700016,48.425531914893554,"['SUB', 'SUB']",2,2009,0,Riverside,576908.398,1734.0946,SUB,95.5608,not reported,19,163.0,41.5404,-90.4483
1082.0,1778.9,11238242.0,0.7230898433936553,17.539715554556096,"['SUB', 'SUB', 'SUB', 'SUB']",4,2009,0,Walter Scott Jr Energy Center,11206710.203,13196.834,SUB,99.7194,not reported,19,155.0,41.18,-95.8408
1091.0,1046.0,6333679.0,0.6975495700839907,36.54741873804983,"['SUB', 'SUB', 'SUB']",3,2009,0,George Neal North,6300537.18,21795.653,SUB,99.4767,not reported,19,193.0,42.2996,-96.3634
1104.0,212.0,1204606.0,0.6486,41.0,['SUB'],1,2009,0,Burlington,1202880.603,4597.3874,SUB,99.841,not reported,19,57.0,40.7412,-91.1168
1122.0,108.8,353773.0,0.371249296582837,31.825367647058783,"['SUB', 'SUB']",2,2009,0,Ames Electric Services Power Plant,324114.395,842.602,SUB,91.6165,not reported,19,169.0,42.0247,-93.6069
1131.0,51.5,18786.0,0.051424922814862134,39.20388349514565,"['BIT', 'BIT']",2,2009,0,Streeter Station,17674.077,252.9364,BIT,94.0811,not reported,19,13.0,42.5267,-92.4394
1167.0,293.5,1021926.0,0.5098641936891712,30.66439522998303,"['SUB', 'SUB', 'SUB', 'SUB']",4,2009,0,Muscatine Plant #1,1018383.454,1355.8449,SUB,99.6533,not reported,19,139.0,41.3917,-91.0569
1175.0,38.0,60447.0,0.22029417671679324,39.42105263157896,"['SUB', 'SUB']",2,2009,0,Pella,55772.6,269.545,SUB,92.2669,not reported,19,125.0,41.3981,-92.9144
1217.0,33.0,3173.0,0.011,49.0,['BIT'],1,2009,['NG'],Earl F Wisdom,3454.158,63.28,BIT,73.9965,not reported,19,41.0,43.1606,-95.2569
1218.0,62.5,212776.0,0.3886614453697786,44.799999999999955,"['BIT', 'BIT']",2,2009,0,Fair Station,212125.381,5350.782,BIT,99.6942,not reported,19,139.0,41.4569,-90.8233
1239.0,87.5,458177.0,0.6294647289148081,56.71428571428578,"['SUB', 'SUB']",2,2009,0,Riverton,352567.342,4905.311,SUB,59.4514,not reported,20,21.0,37.0719,-94.6986
1241.0,1578.0,9244848.0,0.6724322292156669,34.26362484157153,"['SUB', 'SUB']",2,2009,0,La Cygne,9225198.679,21328.95,SUB,99.7875,not reported,20,107.0,38.3472,-94.6389
1250.0,566.0,3318128.0,0.6723012667986286,41.60070671378094,"['SUB', 'SUB', 'SUB']",3,2009,0,Lawrence Energy Center,3314171.225,2771.558,SUB,99.8808,not reported,20,45.0,39.0072,-95.2692
1252.0,232.0,1397538.0,0.6878775095203136,48.767241379310235,"['SUB', 'SUB']",2,2009,0,Tecumseh Energy Center,1391839.141,5026.7557,SUB,99.5903,not reported,20,177.0,39.0522,-95.5669
1295.0,239.1,1103774.0,0.5528381193070321,40.04767879548308,"['SUB', 'SUB']",2,2009,0,Quindaro,1077153.216,3608.6809,SUB,97.5766,not reported,20,209.0,39.1486,-94.6405
1353.0,1096.8,6262165.0,0.6578108846541092,41.53446389496685,"['BIT', 'BIT']",2,2009,0,Big Sandy,6245122.039,40224.875,BIT,99.7278,not reported,21,127.0,38.1707,-82.6176
1355.0,739.4000000000001,2505295.0,0.40440166690948565,42.093048417636055,"['BIT', 'BIT', 'BIT']",3,2009,0,E W Brown,2498989.048,32250.247,BIT,96.806,not reported,21,167.0,37.7889,-84.7139
1356.0,2225.8999999999996,11345581.0,0.5872929623172229,30.001392695089407,"['BIT', 'BIT', 'BIT', 'BIT']",4,2009,0,Ghent,11325017.283,10871.087,BIT,99.8188,not reported,21,41.0,38.7497,-85.035
1357.0,188.6,625461.0,0.38271288441645446,51.98833510074223,"['BIT', 'BIT']",2,2009,0,Green River,622850.235,14723.934,BIT,99.5826,not reported,21,177.0,37.3636,-87.1214
1361.0,75.0,23701.0,0.0361,56.0,['BIT'],1,2009,0,Tyrone,24047.147,203.681,BIT,100.0,not reported,21,239.0,38.0478,-84.8483
1363.0,644.6,3248151.0,0.5805297077937571,42.74681973316774,"['BIT', 'BIT', 'BIT']",3,2009,['NG'],Cane Run,3233872.633,8792.2029,BIT,99.554,not reported,21,111.0,38.1828,-85.8894
1364.0,1717.1999999999998,10374395.0,0.6941127031504005,31.803983228511242,"['BIT', 'BIT', 'BIT', 'BIT']",4,2009,0,Mill Creek,10347175.998,24234.042,BIT,99.7376,not reported,21,111.0,38.0531,-85.91
1374.0,445.3,2452535.0,0.6288759114548824,38.66494498091197,"['BIT', 'BIT']",2,2009,0,Elmer Smith,2390872.708,6722.994,BIT,97.4858,not reported,21,59.0,37.7958,-87.0597
1378.0,2558.2,14253946.0,0.6498678888919601,42.85270893597044,"['BIT', 'BIT', 'SUB']",3,2009,0,Paradise,14251647.767,33805.716,BIT,99.9839,not reported,21,177.0,37.2608,-86.9783
1379.0,1750.0,7451117.0,0.49965320300298605,54.90000000000009,"['BIT', 'BIT', 'BIT', 'BIT', 'BIT', 'BIT', 'BIT', 'BIT', 'BIT', 'BIT']",10,2009,0,Shawnee,7436369.486,27421.501,BIT,99.8021,not reported,21,145.0,37.1517,-88.775
1381.0,602.0,2666358.0,0.5075605788495019,39.02159468438549,"['BIT', 'BIT', 'BIT']",3,2009,0,Kenneth C Coleman,2660339.771,3893.075,BIT,99.7743,not reported,21,91.0,37.9628,-86.7917
1382.0,405.0,1577479.0,0.44704157589419574,35.493827160493765,"['BIT', 'BIT']",2,2009,0,HMP&L Station Two Henderson,1575057.966,4809.985,BIT,99.8465,not reported,21,101.0,37.6472,-87.5028
1383.0,96.0,622.0,0.0007,43.0,['BIT'],1,2009,['DFO'],Robert A Reid,11700.824,556.25,BIT,100.0,not reported,21,233.0,37.6467,-87.5033
1384.0,344.0,1584812.0,0.5293133550856506,41.320930232557885,"['BIT', 'BIT']",2,2009,0,Cooper,1582620.811,15158.662,BIT,99.8617,not reported,21,199.0,37.0,-84.5917
1385.0,216.0,821272.0,0.43706145418326686,51.625,"['BIT', 'BIT', 'BIT', 'BIT']",4,2009,0,Dale,818662.029,7282.764,BIT,99.6822,not reported,21,49.0,37.8807,-84.2634
1393.0,614.6,3520130.0,0.6537999999999999,27.000000000000227,['SUB'],1,2009,"['NG', 'NG']",R S Nelson,3382109.107,15020.628,SUB,72.6141,not reported,22,19.0,30.2861,-93.2917
1552.0,399.8,1083584.0,0.31470523854172816,46.952476238118834,"['BIT', 'BIT']",2,2009,['DFO'],C P Crane,1074596.725,12478.5279,BIT,99.1666,not reported,24,5.0,39.3269,-76.365
1554.0,495.0,2263082.0,0.5401109685817835,44.92323232323224,"['BIT', 'BIT']",2,2009,"['DFO', 'NG', 'RFO']",Herbert A Wagner,2219365.294,15139.5049,BIT,95.8827,not reported,24,3.0,39.1781,-76.5268
1570.0,109.5,127849.0,0.16589983652590165,54.46575342465758,"['BIT', 'BIT']",2,2009,0,R Paul Smith Power Station,125739.563,963.7,BIT,98.3501,not reported,24,43.0,39.595,-77.8269
1571.0,728.0,3860266.0,0.605351811533195,44.5,"['BIT', 'BIT']",2,2009,"['RFO', 'RFO']",Chalk Point LLC,3701120.474,41250.415,BIT,88.0503,not reported,24,33.0,38.5444,-76.6861
1572.0,588.0,2354996.0,0.4612228733297212,48.66666666666674,"['BIT', 'BIT', 'BIT']",3,2009,0,Dickerson,2341470.835,25739.078,BIT,97.6154,not reported,24,31.0,39.2086,-77.4644
1573.0,1252.0,6721108.0,0.6161027211584758,38.5,"['BIT', 'BIT']",2,2009,0,Morgantown Generating Plant,6706468.375,69569.911,BIT,99.5779,not reported,24,17.0,38.3592,-76.9767
1606.0,136.0,520394.0,0.4368,49.0,['BIT'],1,2009,0,Mount Tom,468423.001,2129.391,BIT,90.0131,not reported,25,13.0,42.2814,-72.6053
1613.0,100.0,115224.0,0.1315,50.0,['BIT'],1,2009,['DFO'],Somerset Station,107371.392,379.6893,SUB,92.9695,not reported,25,5.0,41.737,-71.146
1619.0,1124.6,7234514.0,0.73497502566171,48.64271741063499,"['BIT', 'BIT', 'BIT']",3,2009,['RFO'],Brayton Point,7183881.365,25143.6324,BIT,98.9165,not reported,25,5.0,41.7125,-71.1914
1626.0,329.6,1281274.0,0.4490437662826218,53.98361650485435,"['BIT', 'BIT', 'BIT']",3,2009,['RFO'],Salem Harbor,1246142.636,5222.181,BIT,96.724,not reported,25,9.0,42.5267,-70.8792
1695.0,312.6,1733112.0,0.6332093048804693,52.49999999999977,"['SUB', 'SUB']",2,2009,0,B C Cobb,1717021.88,9630.009,SUB,99.0716,not reported,26,121.0,43.2542,-86.2417
1702.0,544.0,2743142.0,1.2398890013714199,49.0,"['SUB', 'SUB', 'SUB', 'SUB']",4,2009,"['NG', 'NG']",Dan E Karn,2640029.034,11684.937,SUB,95.3239,not reported,26,17.0,43.6425,-83.8431
1710.0,1585.8999999999999,9638003.0,0.7336323827249275,35.320890346175474,"['SUB', 'SUB', 'SUB']",3,2009,['DFO'],J H Campbell,9622315.416,31798.0139,SUB,99.8366,not reported,26,139.0,42.9103,-86.2036
1720.0,312.6,1869429.0,0.6860195481614974,52.5,"['SUB', 'SUB']",2,2009,['NG'],J C Weadock,1854863.858,8436.3431,SUB,99.2057,not reported,26,17.0,43.6425,-83.8431
1723.0,345.4,1713405.0,0.6151484985161128,56.61551823972172,"['SUB', 'SUB', 'SUB']",3,2009,['DFO'],J R Whiting,1707891.7,6670.1234,SUB,99.6718,not reported,26,115.0,41.7917,-83.4486
1731.0,121.0,130616.0,0.1232,41.0,['BIT'],1,2009,0,Harbor Beach,127321.595,1044.2985,BIT,97.554,not reported,26,63.0,43.8519,-82.6436
1733.0,3279.6000000000004,19130345.0,0.6671825819398448,36.24917672886977,"['SUB', 'SUB', 'SUB', 'SUB']",4,2009,0,Monroe,19109310.009,85898.0136,SUB,99.8923,not reported,26,115.0,41.8917,-83.3461
1740.0,650.6,3428132.0,0.6119922724095804,51.449584998463024,"['SUB', 'SUB']",2,2009,0,River Rouge,3388756.131,14945.4987,SUB,98.8514,not reported,26,163.0,42.2733,-83.1131
1743.0,1547.0,6576097.0,0.48749705521375364,48.33451842275372,"['SUB', 'SUB', 'SUB', 'SUB', 'SUB', 'SUB']",6,2009,0,St Clair,6529373.914,28930.4244,SUB,99.3157,not reported,26,147.0,42.7625,-82.4722
1745.0,775.5,3868496.0,0.6247746510530191,46.72533849129604,"['SUB', 'SUB', 'SUB']",3,2009,0,Trenton Channel,3862986.007,25443.042,SUB,99.8576,not reported,26,163.0,42.1236,-83.1811
1769.0,450.0,2518783.0,0.6465366328500709,32.200000000000045,"['BIT', 'BIT', 'SUB', 'SUB', 'SUB']",5,2009,0,Presque Isle,2614413.636,9693.5,SUB,99.7456,not reported,26,103.0,46.5789,-87.395
1771.0,23.0,65640.0,0.32935228519195614,51.0,"['BIT', 'BIT']",2,2009,0,Escanaba,65640.0,905.3083,BIT,100.0,not reported,26,41.0,45.833,-87.0923
1825.0,80.0,281051.0,0.401,26.0,['BIT'],1,2009,0,J B Sims,280048.964,333.964,BIT,99.6435,not reported,26,139.0,43.0722,-86.2342
1830.0,62.8,196952.0,0.3824853070798976,45.74840764331179,"['BIT', 'BIT', 'BIT']",3,2009,0,James De Young,196952.0,1474.9339,BIT,100.0,not reported,26,139.0,42.7956,-86.1133
1831.0,375.0,897526.0,0.31567941563809854,45.24533333333329,"['SUB', 'SUB', 'SUB', 'SUB', 'SUB', 'SUB']",6,2009,0,Eckert Station,893431.381,3227.66,SUB,99.5438,not reported,26,65.0,42.7183,-84.5586
1832.0,154.7,1087369.0,0.8024,36.0,['SUB'],1,2009,0,Erickson Station,1085547.511,3543.361,SUB,99.8325,not reported,26,45.0,42.6919,-84.6572
1843.0,77.5,269395.0,0.6825834235973199,31.56129032258059,"['BIT', 'BIT', 'SUB']",3,2009,0,Shiras,269079.139,102.9704,SUB,99.8828,not reported,26,103.0,46.5314,-87.3917
1866.0,73.0,185425.0,0.4431509138465686,39.17123287671234,"['BIT', 'BIT', 'BIT', 'BIT']",4,2009,0,Wyandotte,147157.061,1268.8941,BIT,79.351,not reported,26,163.0,42.2081,-83.1453
1891.0,116.0,510475.0,0.5023734043782752,56.0,"['SUB', 'SUB']",2,2009,0,Syl Laskin,509515.98,1253.987,SUB,99.8121,not reported,27,137.0,47.5306,-92.1619
1893.0,1072.5,6152653.0,0.6809215068036504,34.316083916083926,"['SUB', 'SUB', 'SUB', 'SUB']",4,2009,0,Clay Boswell,6139574.671,13442.585,SUB,99.7874,not reported,27,61.0,47.2603,-93.6531
1904.0,293.5,1281573.0,0.4994314662528003,50.94207836456553,"['SUB', 'SUB']",2,2009,"['NG', 'NG']",Black Dog,1275049.605,3089.931,SUB,73.4779,not reported,27,37.0,44.8108,-93.2501
1915.0,598.4,3450748.0,0.6583,51.0,['SUB'],1,2009,0,Allen S King,3445207.663,1636.442,SUB,99.8394,not reported,27,163.0,45.03,-92.7786
1943.0,129.4,599411.0,0.5435396719446257,47.1020092735705,"['SUB', 'SUB']",2,2009,['WAT'],Hoot Lake,598474.914,2187.488,SUB,95.9854,not reported,27,111.0,46.29,-96.0428
1961.0,31.9,1786.0,0.0064,38.0,['BIT'],1,2009,0,Austin Northeast,917.835,21.114,NG,51.3905,not reported,27,99.0,43.7014,-92.9626
1979.0,35.9,172766.612,0.5632825216593355,27.61002785515325,"['SUB', 'SUB', 'SUB']",3,2009,0,Hibbing,124194.343,585.4771,SUB,71.8856,not reported,27,137.0,47.4294,-92.935
2008.0,99.0,40715.0,0.07142218838265996,45.404040404040416,"['BIT', 'BIT', 'BIT', 'BIT']",4,2009,0,Silver Lake,36976.619,515.685,BIT,90.8182,not reported,27,109.0,44.0281,-92.4597
2018.0,30.2,110242.0,0.49562978447415684,39.44039735099341,"['SUB', 'SUB', 'SUB']",3,2009,0,Virginia,58805.038,253.4176,SUB,53.3418,not reported,27,137.0,47.561,-92.5217
2022.0,18.0,30385.0,0.1927,39.0,['SUB'],1,2009,['NG'],Willmar,27790.965,150.0109,SUB,86.0535,not reported,27,67.0,45.1217,-95.0535
2049.0,877.2,2757823.0,0.3748985264464036,37.705426356589214,"['BIT', 'BIT']",2,2009,0,Jack Watson,2720246.47,12765.971,BIT,98.8473,not reported,28,47.0,30.4408,-89.0265
2062.0,32.6,1713.0,0.006052072387624051,44.705521472392775,"['BIT', 'BIT']",2,2009,['NG'],Henderson,1468.819,22.3832,BIT,70.6403,not reported,28,83.0,33.5153,-90.2072
2076.0,231.5,1343898.0,0.7200322763334718,37.70755939524838,"['SUB', 'SUB']",2,2009,0,Asbury,1303280.908,11006.486,SUB,96.9777,not reported,29,97.0,37.3596,-94.5913
2079.0,594.3,3982039.0,0.7649,40.0,['SUB'],1,2009,"['NG', 'NG']",Hawthorn,3973096.636,2016.554,SUB,95.1655,not reported,29,95.0,39.1306,-94.4778
2080.0,564.0,3211592.0,0.6519263101913318,48.33333333333326,"['SUB', 'SUB', 'SUB']",3,2009,0,Montrose,3199348.09,12791.369,SUB,99.6188,not reported,29,83.0,38.3108,-93.9331
2094.0,524.0,2899049.0,0.6392325640925697,41.612595419847366,"['SUB', 'SUB', 'SUB']",3,2009,0,Sibley,2862744.365,11787.154,SUB,98.7477,not reported,29,95.0,39.1778,-94.1861
2098.0,90.0,490978.0,0.6228,43.0,['SUB'],1,2009,['NG'],Lake Road,396689.6,2407.5551,SUB,84.5775,not reported,29,21.0,39.7246,-94.8773
2103.0,2389.4,17237568.0,0.8275584549804241,37.46040847074573,"['SUB', 'SUB', 'SUB', 'SUB']",4,2009,0,Labadie,17226242.192,61683.399,SUB,99.9343,not reported,29,71.0,38.5583,-90.8361
2104.0,923.0,5362511.0,0.6649863987598348,50.86078006500543,"['SUB', 'SUB', 'SUB', 'SUB']",4,2009,0,Meramec,5347183.404,16855.725,SUB,99.7081,not reported,29,189.0,38.4017,-90.3358
2107.0,1099.4,5760507.0,0.5989935975253566,41.50000000000023,"['SUB', 'SUB']",2,2009,0,Sioux,5758067.401,46441.773,SUB,99.9576,not reported,29,183.0,38.9158,-90.2917
2123.0,38.5,16995.0,0.06342826713739336,47.42857142857133,"['BIT', 'BIT']",2,2009,['NG'],Columbia,75961.0,908.6363,BIT,87.6603,not reported,29,19.0,38.9658,-92.3175
2132.0,115.0,166101.0,0.23427116453242303,47.043478260869506,"['BIT', 'BIT', 'BIT']",3,2009,0,Blue Valley,158551.962,5946.4079,BIT,95.4552,not reported,29,95.0,39.0919,-94.3261
2144.0,22.5,42971.0,0.2973,44.933333333333394,"['BIT', 'BIT']",2,2009,['NG'],Marshall,41703.664,1343.5563,BIT,95.4623,not reported,29,195.0,39.1229,-93.2011
2161.0,253.0,1218713.0,0.5638800516610556,44.42292490118575,"['SUB', 'SUB', 'SUB', 'SUB', 'SUB']",5,2009,0,James River Power Station,1209420.106,3782.6702,SUB,98.8648,not reported,29,77.0,37.1086,-93.2592
2167.0,1200.0,7246811.0,0.6921572800780923,34.5,"['SUB', 'SUB']",2,2009,0,New Madrid,7241272.246,14479.763,SUB,99.9236,not reported,29,143.0,36.5147,-89.5617
2168.0,1135.0,7379800.0,0.744102939917071,32.801762114537496,"['SUB', 'SUB', 'SUB']",3,2009,0,Thomas Hill,7367123.425,16628.23,SUB,99.8282,not reported,29,175.0,39.5531,-92.6392
2169.0,59.0,404625.0,0.8967248696941613,50.77966101694915,"['BIT', 'SUB']",2,2009,0,Chamois,404137.563,2644.2996,SUB,99.8795,not reported,29,151.0,38.6853,-91.7556
2171.0,46.0,14526.0,0.0645168250034421,55.0,"['BIT', 'BIT']",2,2009,0,Missouri City,14748.513,919.361,BIT,100.0,not reported,29,47.0,39.2319,-94.3084
2187.0,172.8,1075253.0,0.7103,41.0,['SUB'],1,2009,0,J E Corette Plant,1074313.616,2831.747,SUB,99.9126,not reported,30,111.0,45.7747,-108.4803
2240.0,130.0,340359.0,0.3016109904541969,36.90769230769229,"['SUB', 'SUB', 'SUB']",3,2009,0,Lon Wright,334361.977,1680.2078,SUB,98.245,not reported,31,53.0,41.4275,-96.4619
2277.0,228.7,1522951.0,0.7603649092452744,45.902929602098766,"['SUB', 'SUB']",2,2009,0,Sheldon,1519672.436,5394.577,SUB,99.7847,not reported,31,109.0,40.5589,-96.7842
2291.0,644.7,3038952.0,0.5386664777199509,47.02605863192207,"['SUB', 'SUB', 'SUB', 'SUB', 'SUB']",5,2009,0,North Omaha,3016314.712,13159.184,SUB,99.2551,not reported,31,55.0,41.3297,-95.9458
2324.0,636.8,3022365.0,0.5445596835259805,33.16080402010061,"['BIT', 'BIT', 'BIT', 'BIT']",4,2009,0,Reid Gardner,3021474.621,1245.408,BIT,99.9705,not reported,32,3.0,36.6531,-114.6364
2341.0,1636.2,-10556.0,-0.0015,38.0,"['SUB', 'SUB']",2,2009,0,Mohave,-5278.0,0.0,BIT,0.0,not reported,32,3.0,35.1458,-114.5917
2364.0,459.20000000000005,2410579.0,0.6307318349243065,42.9790940766552,"['BIT', 'BIT']",2,2009,0,Merrimack,2410045.986,28842.6334,BIT,99.9621,not reported,33,13.0,43.1411,-71.4692
2367.0,100.0,487094.0,0.5562816164847032,54.5,"['BIT', 'BIT']",2,2009,"['JF', 'WDS']",Schiller,475622.423,3550.1797,BIT,59.2186,not reported,33,15.0,43.0978,-70.7842
2378.0,299.2,451261.0,0.23539382286525984,45.909090909090764,"['BIT', 'BIT']",2,2009,['RFO'],B L England,447678.189,1591.6323,BIT,95.9433,not reported,34,9.0,39.29,-74.6339
2384.0,73.5,54791.0,0.08510000000000001,55.0,['BIT'],1,2009,['NG'],Deepwater,49144.843,385.389,BIT,85.853,not reported,34,33.0,39.6831,-75.5083
2403.0,659.7,1426936.0,0.24690000000000004,41.0,['BIT'],1,2009,0,PSEG Hudson Generating Station,1301451.355,1455.689,SUB,91.9405,not reported,34,17.0,40.7478,-74.0719
2408.0,652.8,1425975.0,0.250837446308666,48.5,"['BIT', 'BIT']",2,2009,0,PSEG Mercer Generating Station,1332198.887,7341.27,BIT,93.4237,not reported,34,21.0,40.1797,-74.7325
2434.0,25.0,12471.0,0.05689999999999999,39.0,['BIT'],1,2009,['RFO'],Howard Down,12391.966,208.419,BIT,84.0989,not reported,34,11.0,39.4889,-75.0347
2442.0,2269.6,15639501.0,0.7872887831587466,41.20237046175521,"['BIT', 'BIT', 'BIT', 'BIT', 'BIT']",5,2009,0,Four Corners,15605341.103,12449.652,SUB,99.7816,not reported,35,45.0,36.69,-108.4814
2451.0,1848.0,11718003.0,0.7322044075854905,30.896103896103796,"['SUB', 'SUB', 'SUB', 'SUB']",4,2009,0,San Juan,11680690.968,5516.936,SUB,99.6816,not reported,35,45.0,36.8006,-108.4386
2468.0,7.5,0.0,0.0,48.0,['BIT'],1,2009,['NG'],Raton,0.0,0.0021,NG,0.0,not reported,35,7.0,36.893,-104.442
2480.0,386.5,2034677.0,0.6010184419443478,45.04476067270389,"['BIT', 'BIT']",2,2009,"['RFO', 'RFO']",Danskammer Generating Station,2026757.204,9848.2781,BIT,98.4896,not reported,36,71.0,41.5736,-73.9747
2526.0,75.0,246482.0,0.3752,58.0,['BIT'],1,2009,0,AES Westover,242279.89,2193.152,BIT,100.0,not reported,36,7.0,42.1117,-75.9747
2527.0,112.5,435248.0,0.4417,56.0,['BIT'],1,2009,0,AES Greenidge LLC,437264.833,415.577,BIT,99.7868,not reported,36,123.0,42.6789,-76.9483
2535.0,322.5,1630107.0,0.5769896285949327,54.0,"['BIT', 'BIT']",2,2009,0,AES Cayuga,1625327.849,2197.562,BIT,99.7068,not reported,36,109.0,42.6028,-76.6336
2549.0,436.0,2027633.0,0.5310520911328629,51.5,"['SUB', 'SUB']",2,2009,0,C R Huntley Generating Station,2021806.68,6017.968,SUB,99.7127,not reported,36,29.0,42.97,-78.93
2554.0,627.2,2624513.0,0.4803902420753869,52.408163265306484,"['SUB', 'SUB', 'SUB', 'SUB']",4,2009,0,Dunkirk Generating Plant,2618016.761,8279.171,SUB,99.7525,not reported,36,13.0,42.49,-79.35
2682.0,49.0,66355.0,0.27045516389119134,49.5,"['BIT', 'BIT']",2,2009,['NG'],S A Carlson,66064.458,1045.2128,BIT,89.8469,not reported,36,13.0,42.0917,-79.2417
2706.0,413.6,2149148.0,0.5996616861193366,41.49661508704094,"['BIT', 'BIT']",2,2009,0,Asheville,2145493.605,1395.301,BIT,97.949,not reported,37,21.0,35.4714,-82.5431
2708.0,328.5,1743658.0,0.6088476873905319,51.85601217655994,"['BIT', 'BIT']",2,2009,0,Cape Fear,1741232.473,11311.397,BIT,99.9631,not reported,37,37.0,35.595,-79.0492
2709.0,402.4,1877712.0,0.5387631335369854,50.91401590457235,"['BIT', 'BIT', 'BIT']",3,2009,0,Lee,1868610.463,12956.174,BIT,81.7911,not reported,37,191.0,35.3775,-78.0875
2712.0,2558.2,15024877.0,0.6760479149013997,36.36908763974634,"['BIT', 'BIT', 'BIT', 'BIT']",4,2009,0,Roxboro,15003119.623,9629.501,BIT,99.8552,not reported,37,145.0,36.4833,-79.0731
2713.0,671.6,2420519.0,0.4153223537596689,42.862864800476245,"['BIT', 'BIT', 'BIT']",3,2009,0,L V Sutton,2407038.219,17950.311,BIT,99.4525,not reported,37,129.0,34.2824,-77.9864
2716.0,165.5,277570.0,0.2017059671434233,58.38972809667666,"['BIT', 'BIT', 'BIT']",3,2009,0,W H Weatherspoon,275869.611,3114.451,BIT,99.1983,not reported,37,155.0,34.5889,-78.975
2718.0,1155.0,3663079.0,0.3944889273204318,49.85714285714289,"['BIT', 'BIT', 'BIT', 'BIT', 'BIT']",5,2009,0,G G Allen,3647922.566,8831.721,BIT,99.5862,not reported,37,71.0,35.1897,-81.0122
2720.0,370.0,420295.0,0.17890035332326104,59.78378378378375,"['BIT', 'BIT', 'BIT', 'BIT']",4,2009,0,Buck,413555.099,2393.99,BIT,98.3964,not reported,37,159.0,35.7133,-80.3767
2721.0,780.9,3269340.0,0.636901731817431,44.27365859905217,"['BIT', 'BIT', 'BIT', 'BIT', 'BIT']",5,2009,0,Cliffside,3261241.816,22979.275,BIT,99.7523,not reported,37,45.0,35.22,-81.7594
2723.0,290.0,171759.0,0.07529452954430335,56.655172413793025,"['BIT', 'BIT', 'BIT']",3,2009,0,Dan River,171916.393,1398.991,BIT,100.0,not reported,37,157.0,36.4862,-79.7208
2727.0,1996.0,12689771.0,0.7506209904260684,40.90280561122245,"['BIT', 'BIT', 'BIT', 'BIT']",4,2009,0,Marshall,12668697.481,4570.775,BIT,99.8339,not reported,37,35.0,35.5975,-80.9658
2732.0,466.0,488716.0,0.1414206430728685,55.8583690987125,"['BIT', 'BIT', 'BIT', 'BIT']",4,2009,0,Riverbend,485025.051,4158.376,BIT,99.3312,not reported,37,71.0,35.36,-80.9742
2790.0,115.0,556757.0,0.5848113144513675,49.130434782608745,"['LIG', 'LIG']",2,2009,0,R M Heskett,556667.071,3606.3978,LIG,99.9838,not reported,38,59.0,46.8669,-100.8839
2817.0,656.0,4197430.0,0.7620088170142206,36.963414634146375,"['LIG', 'LIG']",2,2009,0,Leland Olds,4192497.866,44153.931,LIG,99.8825,not reported,38,57.0,47.2819,-101.3194
2823.0,734.0,5018507.0,0.7827570225567086,34.45095367847421,"['LIG', 'LIG']",2,2009,0,Milton R Young,4998313.629,25724.274,LIG,99.5976,not reported,38,65.0,47.0664,-101.2139
2824.0,190.2,1178990.0,0.7076,42.0,['SUB'],1,2009,0,Stanton,1177527.111,2341.075,SUB,99.8759,not reported,38,57.0,47.2872,-101.3314
2828.0,1880.4,10784462.0,0.6684011052197133,38.54328866198671,"['BIT', 'BIT', 'BIT']",3,2009,0,Cardinal,10745600.845,34750.942,BIT,99.6397,not reported,39,81.0,40.2522,-80.6486
2830.0,1221.3,5085326.0,0.5065380976952117,47.48284614754766,"['BIT', 'BIT', 'BIT', 'BIT', 'BIT', 'BIT']",6,2009,0,Walter C Beckjord,5072664.163,41964.5536,BIT,99.7453,not reported,39,25.0,38.9917,-84.2981
2832.0,1278.0,8634999.0,0.7713894873873175,34.60633802816892,"['BIT', 'BIT', 'BIT']",3,2009,0,Miami Fort,8604248.554,25339.9485,BIT,99.649,not reported,39,61.0,39.1131,-84.8031
2835.0,256.0,609503.0,0.2718,51.0,['SUB'],1,2009,0,Ashtabula,608312.437,4954.993,BIT,99.8047,not reported,39,7.0,41.9086,-80.7697
2836.0,766.0,3099887.0,0.5155046943969248,41.35770234986944,"['BIT', 'BIT']",2,2009,0,Avon Lake,3088213.33,37160.572,BIT,99.6327,not reported,39,93.0,41.5042,-82.05
2837.0,1257.0,5399951.0,0.5104214099720534,45.12728719172628,"['SUB', 'SUB', 'SUB', 'SUB', 'BIT']",5,2009,0,Eastlake,5378443.987,48863.799,BIT,99.6085,not reported,39,85.0,41.6713,-81.4432
2838.0,256.0,276116.0,0.1231,47.0,['SUB'],1,2009,0,Lake Shore,276165.539,1099.4458,SUB,100.0,not reported,39,35.0,41.5356,-81.6419
2840.0,1890.8000000000002,6189984.0,0.42392329647378724,35.06140258091841,"['BIT', 'BIT', 'BIT', 'BIT']",4,2009,0,Conesville,6179538.099,26232.006,BIT,99.8312,not reported,39,31.0,40.1842,-81.8811
2843.0,106.2,124791.0,0.1341,54.0,['BIT'],1,2009,0,Picway,123457.478,2222.191,BIT,98.9314,not reported,39,129.0,39.7933,-83.0097
2848.0,414.0,91440.0,0.04553485454943132,58.5,"['BIT', 'BIT', 'BIT', 'BIT', 'BIT', 'BIT']",6,2009,['NG'],O H Hutchings,87432.758,795.998,BIT,95.579,not reported,39,113.0,39.6094,-84.2931
2850.0,2440.8,15323885.0,0.717166933750808,37.25,"['BIT', 'BIT', 'BIT', 'BIT']",4,2009,0,J M Stuart,15291491.09,64001.0348,BIT,99.7877,not reported,39,1.0,38.6361,-83.6939
2861.0,265.6,283199.0,0.20549712852093405,55.0,"['BIT', 'BIT']",2,2009,0,Niles,283034.211,6931.875,BIT,100.0,not reported,39,155.0,41.1667,-80.75
2864.0,415.8,571840.0,0.25218212402070506,55.24338624338634,"['BIT', 'BIT', 'BIT']",3,2009,0,R E Burger,570327.802,5988.036,BIT,99.7343,not reported,39,13.0,39.9094,-80.7608
2866.0,2455.6,8819553.0,0.4632992701784319,42.35445512298429,"['BIT', 'BIT', 'BIT', 'BIT', 'BIT', 'BIT', 'BIT']",7,2009,0,W H Sammis,8807674.119,73614.7304,BIT,99.8591,not reported,39,81.0,40.5308,-80.6311
2872.0,1529.4,7299585.0,0.5732360321168943,48.4250686543744,"['BIT', 'BIT', 'BIT', 'BIT', 'BIT']",5,2009,0,Muskingum River,7279775.188,98008.567,BIT,99.7286,not reported,39,167.0,39.5908,-81.6797
2876.0,1086.5,6791198.0,0.7146500141212199,54.0,"['SUB', 'SUB', 'SUB', 'SUB', 'SUB']",5,2009,0,Kyger Creek,6785335.566,56397.044,SUB,99.9137,not reported,39,53.0,38.9161,-82.1281
2878.0,498.79999999999995,1611616.0,0.40881043530220595,44.94627105052109,"['SUB', 'SUB', 'SUB']",3,2009,['PC'],Bay Shore,1701948.44,7877.588,SUB,63.906,not reported,39,95.0,41.6925,-83.4375
2914.0,27.5,74293.0,0.4349,45.07272727272721,"['BIT', 'BIT']",2,2009,0,Dover,74182.972,1188.5405,BIT,99.8519,not reported,39,157.0,40.5198,-81.4714
2917.0,75.6,196887.0,0.3026481326852458,37.30687830687816,"['BIT', 'BIT']",2,2009,0,Hamilton,188493.415,754.9102,BIT,97.0285,not reported,39,17.0,39.4083,-84.5625
2935.0,84.5,301361.0,0.6678890974611844,43.325443786982305,"['BIT', 'BIT', 'BIT', 'BIT', 'BIT']",5,2009,0,Orrville,300996.625,13130.5182,BIT,99.8791,not reported,39,169.0,40.8508,-81.765
2936.0,53.5,108460.125,0.31333638460494123,37.64485981308417,"['BIT', 'BIT', 'BIT', 'BIT']",4,2009,0,Painesville,107930.606,3522.1953,BIT,99.5118,not reported,39,85.0,41.7265,-81.254
2943.0,37.0,77159.0,0.3551756399123887,44.662162162162076,"['BIT', 'BIT', 'BIT', 'BIT']",4,2009,['DFO'],Shelby Municipal Light Plant,76932.552,2534.2808,BIT,99.62,not reported,39,139.0,40.88,-82.6567
2952.0,1716.0,8505515.0,0.5749382073748621,29.333333333333258,"['SUB', 'SUB', 'SUB']",3,2009,['NG'],Muskogee,8444013.092,25532.3602,SUB,99.2652,not reported,40,101.0,35.7617,-95.2847
2963.0,946.0,6761894.0,0.8161403237909378,29.5,"['SUB', 'SUB']",2,2009,"['NG', 'NG']",Northeastern,6718957.772,23636.3325,SUB,68.8646,not reported,40,131.0,36.4317,-95.7008
3098.0,510.0,349947.0,0.17271686598256308,53.41176470588243,"['BIT', 'BIT', 'BIT', 'BIT']",4,2009,0,Elrama Power Plant,344095.913,862.047,BIT,98.328,not reported,42,125.0,40.2524,-79.9186
3113.0,427.0,2282124.0,0.6101150314356275,48.61124121779858,"['BIT', 'BIT']",2,2009,0,Portland,2272526.739,30464.944,BIT,99.502,not reported,42,95.0,40.91,-75.0789
3115.0,225.0,953379.0,0.48400478393167884,57.33333333333326,"['BIT', 'BIT', 'BIT']",3,2009,0,Titus,950709.586,9861.1134,BIT,100.0,not reported,42,11.0,40.3061,-75.9081
3118.0,1872.0,12155687.0,0.7414870705785696,38.5,"['BIT', 'BIT']",2,2009,0,Conemaugh,12147610.717,7221.7184,BIT,99.9323,not reported,42,63.0,40.3842,-79.0611
3122.0,2012.0,11417644.0,0.6592606360559149,37.24850894632209,"['BIT', 'BIT', 'BIT']",3,2009,0,Homer City Station,11401719.358,101334.056,BIT,99.8605,not reported,42,63.0,40.511,-79.1968
3130.0,585.0,3414195.0,0.6662000000000001,5.0,['WC'],1,2009,0,Seward,3405286.104,7755.581,WC,99.7391,not reported,42,63.0,40.4081,-79.0339
3131.0,626.0,2290516.0,0.43660802347593297,51.69648562300313,"['BIT', 'BIT', 'BIT', 'BIT']",4,2009,0,Shawville,2274802.027,32972.6099,BIT,99.3214,not reported,42,33.0,41.067,-78.3656
3136.0,1872.0,10540156.0,0.6451199072006145,41.5,"['BIT', 'BIT']",2,2009,0,Keystone,10509549.831,113138.952,BIT,99.6863,not reported,42,5.0,40.6604,-79.3411
3138.0,348.0,617947.0,0.20405111150309008,50.344827586206975,"['BIT', 'BIT', 'BIT']",3,2009,0,New Castle Plant,615776.057,7628.9706,BIT,99.6464,not reported,42,73.0,40.9378,-80.3681
3140.0,1558.6999999999998,8863602.0,0.6498939632668526,42.90395842689395,"['BIT', 'BIT', 'BIT']",3,2009,0,PPL Brunner Island,8840236.729,59055.0312,BIT,99.7335,not reported,42,133.0,40.097,-76.6962
3149.0,1641.7,9932521.0,0.7985289890955176,36.49064993604202,"['BIT', 'BIT', 'BIT']",3,2009,0,PPL Montour,9901003.467,17425.887,BIT,99.6827,not reported,42,93.0,41.0714,-76.6672
3152.0,437.9,1078939.0,0.28489200316236596,58.10047956154358,"['BIT', 'BIT', 'BIT', 'BIT']",4,2009,['DFO'],Sunbury Generation LP,1073517.75,17030.4696,BIT,99.4799,not reported,42,109.0,40.8361,-76.825
3159.0,187.5,414169.0,0.2522,55.0,['BIT'],1,2009,"['DFO', 'RFO']",Cromby Generating Station,401145.118,2241.1964,BIT,76.5489,not reported,42,29.0,40.1514,-75.5306
3161.0,707.2,1977129.0,0.3199472462848909,49.00000000000023,"['BIT', 'BIT']",2,2009,"['RFO', 'RFO']",Eddystone Generating Station,1759092.789,5469.0467,BIT,86.1754,not reported,42,45.0,39.858,-75.323
3176.0,49.9,228185.0,0.522,50.00000000000023,['WC'],1,2009,0,Hunlock Power Station,203959.538,2991.385,WC,89.3834,not reported,42,79.0,41.2033,-76.0683
3178.0,326.4,570025.0,0.19941450304811192,50.50000000000023,"['BIT', 'BIT']",2,2009,0,Armstrong Power Station,566795.591,8975.697,BIT,99.4335,not reported,42,5.0,40.9289,-79.4658
3179.0,1728.0,9052402.0,0.603135810296538,39.0,"['BIT', 'BIT', 'BIT']",3,2009,0,Hatfields Ferry Power Station,9028727.912,92752.016,BIT,99.7385,not reported,42,59.0,39.8562,-79.9274
3181.0,299.2,819283.0,0.3126,46.0,['BIT'],1,2009,0,Mitchell Power Station,799711.665,543.409,BIT,99.2374,not reported,42,125.0,40.2207,-79.9682
3251.0,206.6,932505.0,0.5152,49.0,['BIT'],1,2009,"['NG', 'NUC']",H B Robinson,931999.357,9564.1138,BIT,12.5848,not reported,45,31.0,34.4017,-80.1589
3264.0,355.0,427425.0,0.16002606539158917,54.54929577464782,"['BIT', 'BIT', 'BIT']",3,2009,0,W S Lee,422984.885,3522.259,BIT,98.828,not reported,45,7.0,34.6022,-82.435
3280.0,489.6,1108108.0,0.26077177847285643,44.2222222222224,"['BIT', 'BIT', 'BIT']",3,2009,0,Canadys Steam,1078214.243,9628.728,BIT,97.3023,not reported,45,29.0,33.0647,-80.6228
3287.0,293.6,971837.0,0.384098480197811,51.0,"['BIT', 'BIT']",2,2009,0,McMeekin,970515.424,6585.0,BIT,99.864,not reported,45,63.0,34.0533,-81.2178
3295.0,100.0,400816.0,0.4576,54.0,['BIT'],1,2009,0,Urquhart,371030.44,4421.554,NG,13.6831,not reported,45,3.0,33.435,-81.9111
3297.0,771.8,3356751.0,0.5027228419087386,38.5,"['BIT', 'BIT']",2,2009,0,Wateree,3342515.831,27992.028,BIT,99.5759,not reported,45,79.0,33.8264,-80.6218
3298.0,632.7,3810036.0,0.6874,36.0,['BIT'],1,2009,0,Williams,3799479.125,16920.14,BIT,99.6549,not reported,45,15.0,33.0163,-79.9285
3317.0,163.2,171292.0,0.12112405483034816,43.00000000000023,"['BIT', 'BIT']",2,2009,0,Dolphus M Grainger,170669.536,2356.151,BIT,99.6366,not reported,45,51.0,33.8253,-79.0528
3319.0,345.6,218339.0,0.07247522293314523,39.00000000000023,"['BIT', 'BIT']",2,2009,"['RFO', 'RFO']",Jefferies,227353.209,3418.363,BIT,49.6957,not reported,45,15.0,33.2422,-79.9875
3325.0,25.0,155389.0,0.7095,48.0,['SUB'],1,2009,0,Ben French,155130.427,627.528,SUB,97.1162,not reported,46,103.0,44.0859,-103.2621
3393.0,990.0,4963983.0,0.573250285426038,50.0,"['SUB', 'SUB', 'SUB']",3,2009,0,Allen Steam Plant,4935707.428,11872.418,SUB,99.4509,not reported,47,157.0,35.0742,-90.1439
3396.0,950.0,3311274.0,0.39790000000000003,42.0,['BIT'],1,2009,0,Bull Run,3296440.923,466.594,BIT,99.552,not reported,47,1.0,36.0211,-84.1567
3399.0,2600.0,15873340.0,0.699499233053661,36.0,"['BIT', 'BIT']",2,2009,0,Cumberland,15791023.595,12461.277,BIT,99.4814,not reported,47,161.0,36.3903,-87.6539
3403.0,1255.2,6470092.0,0.5901698852350167,51.195028680688665,"['SUB', 'SUB', 'SUB', 'SUB']",4,2009,0,Gallatin,6460111.229,19673.171,SUB,99.632,not reported,47,165.0,36.3156,-86.4006
3405.0,800.0,3609040.0,0.518537142342562,53.25,"['BIT', 'BIT', 'BIT', 'BIT']",4,2009,0,John Sevier,3606514.975,20316.11,BIT,99.93,not reported,47,73.0,36.3767,-82.9639
3406.0,1485.1999999999998,4467015.0,0.3756093741794017,53.92795583086399,"['SUB', 'SUB', 'SUB', 'SUB', 'SUB', 'SUB', 'SUB', 'SUB', 'SUB', 'SUB']",10,2009,0,Johnsonville,4441698.889,29038.8713,SUB,98.0611,not reported,47,85.0,36.0278,-87.9861
3407.0,1700.0,1898827.0,0.15637569046574543,54.41176470588243,"['BIT', 'BIT', 'BIT', 'BIT', 'BIT', 'BIT', 'BIT', 'BIT', 'BIT']",9,2009,0,Kingston,1894990.133,11260.014,BIT,99.7979,not reported,47,145.0,35.8992,-84.5194
3470.0,2736.8,18283672.0,0.7678650898134686,29.863234434375954,"['SUB', 'SUB', 'SUB', 'SUB']",4,2009,"['NG', 'NG', 'NG', 'NG', 'NG']",W A Parish,18001331.124,42502.0351,SUB,94.8844,not reported,48,157.0,29.4828,-95.6311
3497.0,1186.8,7714688.0,0.7445568730841738,37.49999999999977,"['LIG', 'LIG']",2,2009,0,Big Brown,7699413.929,55547.364,SUB,99.802,not reported,48,161.0,31.8206,-96.0561
3644.0,188.6,1212163.0,0.7364137178745762,53.19300106044557,"['BIT', 'BIT']",2,2009,0,Carbon,1210342.39,5494.4,BIT,99.8498,not reported,49,7.0,39.7272,-110.8644
3775.0,712.5,1525809.0,0.27401465956748194,50.0,"['BIT', 'BIT', 'BIT']",3,2009,0,Clinch River,1522044.142,7004.223,BIT,99.7533,not reported,51,167.0,36.9333,-82.1997
3776.0,337.5,462736.0,0.19597909002109193,55.85185185185196,"['BIT', 'BIT']",2,2009,0,Glen Lyn,455360.761,3215.729,BIT,98.4062,not reported,51,71.0,37.3704,-80.8639
3788.0,514.0,622333.0,0.17669501697644188,55.54085603112844,"['BIT', 'BIT', 'BIT', 'BIT', 'BIT']",5,2009,0,Potomac River,611515.33,954.395,BIT,98.2618,not reported,51,510.0,38.8203,-77.0411
3796.0,254.2,921622.0,0.42785382141485334,53.17151848937851,"['BIT', 'BIT']",2,2009,0,Bremo Bluff,918769.121,6969.149,BIT,99.6905,not reported,51,65.0,37.7089,-78.2878
3797.0,1352.9,8272979.0,0.7159415594189228,43.98773006135002,"['BIT', 'BIT', 'BIT', 'BIT']",4,2009,0,Chesterfield,8259185.108,32292.839,BIT,77.4852,not reported,51,41.0,37.3822,-77.3833
3803.0,649.5,3304207.0,0.5859477204364012,50.79999999999973,"['BIT', 'BIT', 'BIT', 'BIT']",4,2009,0,Chesapeake,3279086.197,16655.2031,BIT,99.2246,not reported,51,550.0,36.7711,-76.3019
3809.0,375.0,1706627.0,0.5238851865111709,51.0,"['BIT', 'BIT']",2,2009,['RFO'],Yorktown,1682637.289,20176.925,BIT,87.1635,not reported,51,199.0,37.2144,-76.4611
3845.0,1459.8,7450007.0,0.5857599304134882,36.5,"['SUB', 'SUB']",2,2009,['NG'],Transalta Centralia Generation,7438653.169,3543.098,SUB,95.0175,not reported,53,41.0,46.7559,-122.8578
3935.0,2932.6,12481691.0,0.49194434036221535,36.83506103798686,"['BIT', 'BIT', 'BIT']",3,2009,0,John E Amos,12426606.522,48567.896,BIT,99.5587,not reported,54,79.0,38.4731,-81.8233
3936.0,439.2,1652784.0,0.4366129715679725,56.0,"['BIT', 'BIT']",2,2009,0,Kanawha River,1650834.517,10855.921,BIT,99.882,not reported,54,39.0,38.2056,-81.4211
3938.0,1105.5,2495273.0,0.29203893241340734,54.1040253279059,"['BIT', 'BIT', 'BIT', 'BIT', 'BIT']",5,2009,0,Philip Sporn,2483881.753,16941.37,BIT,99.5435,not reported,54,53.0,38.9669,-81.9231
3942.0,278.2,299096.0,0.14939498756252173,55.99209202012912,"['BIT', 'BIT', 'BIT']",3,2009,0,Albright,297831.655,4888.994,BIT,99.3485,not reported,54,77.0,39.4883,-79.6367
3943.0,1152.0,4085340.0,0.405269769346003,41.5,"['BIT', 'BIT']",2,2009,0,Fort Martin Power Station,4059876.705,47655.99,BIT,99.3767,not reported,54,61.0,39.7107,-79.9275
3944.0,2052.0,10063605.0,0.5637653442181008,36.0,"['BIT', 'BIT', 'BIT']",3,2009,0,Harrison Power Station,10038853.58,10185.929,BIT,99.7541,not reported,54,33.0,39.3844,-80.3325
3945.0,109.7,12455.0,0.031860578081091925,60.552415679124806,"['BIT', 'BIT']",2,2009,0,Rivesville,13312.883,185.503,BIT,100.0,not reported,54,49.0,39.5314,-80.113
3946.0,213.2,80079.0,0.052809425692129014,51.57973733583481,"['BIT', 'BIT']",2,2009,0,Willow Island,77068.141,759.858,SUB,96.0619,not reported,54,73.0,39.3672,-81.3006
3947.0,712.5,1731515.0,0.2986499036970514,50.66666666666674,"['BIT', 'BIT', 'BIT']",3,2009,0,Kammer,1727192.11,16756.109,BIT,99.7503,not reported,54,51.0,39.8464,-80.8189
3948.0,1632.6,9389850.0,0.6566863659802873,38.00000000000023,"['BIT', 'BIT']",2,2009,0,Mitchell,9372004.354,3172.97,BIT,99.8099,not reported,54,51.0,39.8297,-80.8153
3954.0,1662.4,9782620.0,0.7105088441440023,41.14497112608274,"['BIT', 'BIT', 'BIT']",3,2009,['JF'],Mt Storm,9764938.445,3062.1986,BIT,99.8183,not reported,54,23.0,39.2014,-79.2667
3982.0,27.2,0.0,0.0,52.0,['SUB'],1,2009,['WDS'],Bay Front,111977.509,738.302,WDS,38.1853,not reported,55,3.0,46.5869,-90.9017
3992.0,177.5,22664.0,0.02431092481468408,54.95774647887333,"['BIT', 'BIT', 'BIT', 'BIT', 'BIT']",5,2009,0,Blount Street,19038.963,399.408,BIT,83.4115,not reported,55,25.0,43.0792,-89.3739
4041.0,1191.6,4424817.0,0.46129402400144454,45.764014770056974,"['SUB', 'SUB', 'SUB', 'SUB']",4,2009,0,South Oak Creek,4399529.309,10869.217,SUB,99.4285,not reported,55,79.0,42.8457,-87.8294
4042.0,272.0,878060.0,0.37686121791221555,40.5,"['BIT', 'BIT']",2,2009,0,Valley,876080.281,3147.1604,BIT,99.7745,not reported,55,79.0,43.0303,-87.9233
4050.0,770.0,4088282.0,0.6166357754186234,33.5064935064936,"['SUB', 'SUB', 'SUB']",3,2009,0,Edgewater,4063685.977,13448.502,SUB,99.3984,not reported,55,117.0,43.715,-87.7094
4054.0,200.0,1071151.0,0.6116356530498502,48.5,"['SUB', 'SUB']",2,2009,0,Nelson Dewey,856953.609,12645.661,SUB,80.0031,not reported,55,43.0,42.7225,-91.0085
4072.0,350.2,1464047.0,0.5112827834762135,51.10108509423185,"['SUB', 'SUB', 'SUB', 'SUB']",4,2009,['NG'],Pulliam,1449787.299,4385.903,SUB,98.854,not reported,55,9.0,44.5397,-88.0083
4078.0,1087.1,6076954.0,0.6409052850984227,16.288657897157464,"['SUB', 'SUB', 'SUB', 'SUB']",4,2009,0,Weston,6047230.677,8943.604,SUB,99.4502,not reported,55,73.0,44.8606,-89.6553
4127.0,28.0,9104.605,0.14543147044819627,37.32857142857165,"['SUB', 'SUB', 'SUB']",3,2009,0,Menasha,9104.605,34.8457,SUB,100.0,not reported,55,139.0,44.2,-88.4853
4140.0,181.0,438237.0,0.34367555683340295,52.80220994475144,"['BIT', 'BIT', 'BIT', 'BIT', 'BIT']",5,2009,0,Alma,436104.758,5302.15,BIT,99.5135,not reported,55,11.0,44.3085,-91.9106
4143.0,345.6,1753686.0,0.5793,40.0,['BIT'],1,2009,0,Genoa,1747563.953,6457.729,SUB,99.6509,not reported,55,123.0,43.5592,-91.2333
4146.0,53.0,21078.0,0.055149587247366925,57.0,"['BIT', 'BIT']",2,2009,0,E J Stoneman Station,20561.189,244.068,BIT,97.5481,not reported,55,43.0,42.7083,-90.9853
4150.0,21.7,139305.0,0.7328,40.00000000000023,['SUB'],1,2009,0,Neil Simpson,138667.559,796.3436,SUB,99.5424,not reported,56,5.0,44.2872,-105.3878
4151.0,34.5,233062.0,0.771524567711596,59.33333333333326,"['SUB', 'SUB', 'SUB']",3,2009,0,Osage,233062.0,2529.6821,SUB,100.0,not reported,56,45.0,43.9703,-104.4106
4158.0,816.7,5017796.0,0.7348608983705198,42.586384229215355,"['SUB', 'SUB', 'SUB', 'SUB']",4,2009,0,Dave Johnston,5008077.549,17777.428,SUB,99.8063,not reported,56,9.0,42.8378,-105.7769
4162.0,707.1999999999999,4753363.0,0.7724235549231144,40.769230769230944,"['SUB', 'SUB', 'SUB']",3,2009,0,Naughton,4712837.88,20326.075,SUB,99.1474,not reported,56,23.0,41.7572,-110.5986
4259.0,55.0,268193.0,0.5566,27.0,['BIT'],1,2009,0,Endicott Station,247022.708,1242.0441,BIT,92.0967,not reported,26,59.0,42.0317,-84.755
4271.0,387.0,2483132.0,0.7325,30.0,['SUB'],1,2009,0,John P Madgett,2481210.541,10031.822,SUB,99.9226,not reported,55,11.0,44.3026,-91.9126
4941.0,2409.3,16140683.0,0.7813887302662472,34.00000000000023,"['BIT', 'BIT', 'BIT']",3,2009,0,Navajo,16118197.812,4596.164,BIT,99.8607,not reported,4,5.0,36.9047,-111.3886
6002.0,2822.0,20815258.0,0.8470973158872208,23.25,"['SUB', 'SUB', 'SUB', 'SUB']",4,2009,0,James H Miller Jr,20744807.443,62241.005,SUB,99.6615,not reported,1,73.0,33.6319,-87.0597
6004.0,1368.0,5767553.0,0.4866649500923529,29.5,"['BIT', 'BIT']",2,2009,0,Pleasants Power Station,5752458.665,8670.096,BIT,99.7383,not reported,54,73.0,39.3668,-81.2944
6009.0,1700.0,10802906.0,0.7268379320897543,28.5,"['SUB', 'SUB']",2,2009,0,White Bluff,10786754.326,33831.8,SUB,99.8505,not reported,5,69.0,34.4236,-92.1392
6016.0,441.0,1924322.0,0.4981,33.0,['BIT'],1,2009,0,Duck Creek,1915092.284,506.11,SUB,99.5204,not reported,17,57.0,40.4663,-89.9841
6017.0,1234.8,7983696.0,0.7392332146163882,29.499999999999773,"['SUB', 'SUB']",2,2009,0,Newton,7976947.332,24755.123,SUB,99.9155,not reported,17,79.0,38.9361,-88.2778
6018.0,669.3,4278054.0,0.7297,28.000000000000227,['BIT'],1,2009,0,East Bend,4270134.958,1724.598,BIT,99.8149,not reported,21,15.0,38.9031,-84.8511
6019.0,1425.6,7268363.0,0.582,18.000000000000227,['BIT'],1,2009,0,W H Zimmer,7244633.869,14284.894,BIT,99.6735,not reported,39,25.0,38.8689,-84.2286
6021.0,1427.6,9425415.0,0.7694003550825083,27.8142336789017,"['SUB', 'SUB', 'SUB']",3,2009,0,Craig,9415437.215,3895.019,SUB,99.8941,not reported,8,81.0,40.4627,-107.5912
6030.0,1210.0,9133982.0,0.8624264287142235,29.5,"['LIG', 'LIG']",2,2009,0,Coal Creek,9130252.872,28638.395,LIG,99.9592,not reported,38,55.0,47.3761,-101.1567
6031.0,660.6,4268653.0,0.7376,27.000000000000227,['BIT'],1,2009,['DFO'],Killen Station,4257487.716,1972.9916,BIT,99.7343,not reported,39,1.0,38.6903,-83.4803
6034.0,1395.0,9525575.0,0.7795205740860788,24.5,"['SUB', 'SUB']",2,2009,0,Belle River,9508292.652,28070.9104,SUB,99.2049,not reported,26,147.0,42.7748,-82.4945
6041.0,1608.5,7627119.0,0.5476710811382385,18.240348150450473,"['BIT', 'BIT', 'BIT', 'BIT']",4,2009,0,H L Spurlock,7605669.408,8275.197,BIT,99.7188,not reported,21,161.0,38.7,-83.8175
6052.0,1904.0,7232775.0,0.43471085753393407,32.0,"['BIT', 'BIT']",2,2009,0,Wansley,7225960.261,7409.234,BIT,99.9091,not reported,13,149.0,33.4124,-85.0345
6055.0,1871.0,12058193.0,0.7373793184020193,27.003741314804984,"['SUB', 'SUB', 'SUB']",3,2009,0,Big Cajun 2,12040955.941,35892.716,SUB,99.8571,not reported,22,77.0,30.7261,-91.3669
6061.0,400.0,1903255.0,0.5432059364614831,31.0,"['BIT', 'BIT']",2,2009,0,R D Morrow,1900605.016,5650.639,BIT,99.8608,not reported,28,73.0,31.2194,-89.3933
6064.0,261.0,1329849.0,0.5816,28.0,['SUB'],1,2009,['NG'],Nearman Creek,1324035.573,5930.894,SUB,98.6104,not reported,20,209.0,39.1714,-94.6958
6065.0,726.0,3825377.0,0.6015,29.0,['SUB'],1,2009,0,Iatan,3823551.487,151.976,SUB,99.9523,not reported,29,165.0,39.4472,-94.98
6068.0,2160.0,12921886.0,0.6874006478466068,28.666666666666742,"['SUB', 'SUB', 'SUB']",3,2009,0,Jeffrey Energy Center,12909499.845,6032.789,SUB,99.9041,not reported,20,149.0,39.2825,-96.1153
6071.0,566.1,3133847.0,0.6319,19.0,['BIT'],1,2009,0,Trimble County,3124300.161,1217.202,BIT,93.8443,not reported,21,223.0,38.5847,-85.4117
6073.0,1096.6,4993904.0,0.5199012379893567,30.000000000000455,"['BIT', 'BIT']",2,2009,"['NG', 'NG']",Victor J Daniel Jr,4988488.039,19891.215,BIT,46.4919,not reported,28,59.0,30.5335,-88.5574
6076.0,2272.0,13154978.0,0.7261165188721714,26.993838028168966,"['SUB', 'SUB', 'SUB', 'SUB']",4,2009,0,Colstrip,13145474.789,15919.378,SUB,99.9278,not reported,30,87.0,45.8831,-106.614
6077.0,1362.6,10000998.0,0.8378505147486282,28.5,"['SUB', 'SUB']",2,2009,0,Gerald Gentleman,9983410.654,31930.723,SUB,99.8241,not reported,31,111.0,41.0808,-101.1408
6082.0,655.1,3368408.0,0.587,24.999999999999773,['BIT'],1,2009,0,AES Somerset LLC,3226264.799,5070.096,BIT,95.7801,not reported,36,63.0,43.3561,-78.6039
6085.0,1943.4,8688763.0,0.5171025023700152,28.436503035916758,"['SUB', 'SUB', 'BIT', 'BIT']",4,2009,0,R M Schahfer,8640700.404,32437.34,SUB,99.409,not reported,18,73.0,41.2175,-87.0239
6089.0,50.0,316534.0,0.7227,51.0,['LIG'],1,2009,0,Lewis & Clark,315884.292,993.218,LIG,99.7947,not reported,30,83.0,47.6788,-104.1569
6090.0,2430.6,15321593.0,0.7221981631609716,28.612071093557233,"['SUB', 'SUB', 'SUB']",3,2009,0,Sherburne County,15309497.428,24015.897,SUB,99.9211,not reported,27,141.0,45.3792,-93.8958
6094.0,2741.1000000000004,17390613.0,0.7243018154909202,31.333333333333485,"['BIT', 'BIT', 'BIT']",3,2009,0,Bruce Mansfield,17357923.697,17704.18,BIT,99.812,not reported,42,7.0,40.6344,-80.42
6095.0,1138.0,6557945.0,0.6584513484178351,29.5,"['SUB', 'SUB']",2,2009,0,Sooner,6549622.895,18345.518,SUB,99.8731,not reported,40,103.0,36.4537,-97.0527
6096.0,1389.6,7412975.0,0.6447879926615158,14.067357512952867,"['SUB', 'SUB']",2,2009,0,Nebraska City,7396181.578,19074.383,SUB,99.7735,not reported,31,131.0,40.6215,-95.7765
6098.0,456.0,3101444.0,0.7763999999999999,34.0,['SUB'],1,2009,0,Big Stone,3062222.292,11459.9545,SUB,98.7354,not reported,46,51.0,45.3047,-96.5103
6101.0,362.0,2713256.0,0.8556,31.0,['SUB'],1,2009,0,Wyodak,2709365.954,7436.856,SUB,99.8566,not reported,56,5.0,44.2886,-105.3847
6106.0,601.0,3200200.0,0.6079,29.0,['SUB'],1,2009,0,Boardman,3196901.53,11056.959,SUB,99.8969,not reported,41,49.0,45.6933,-119.8056
6113.0,3339.5,18901781.0,0.6545900252203747,31.000000000000227,"['BIT', 'BIT', 'BIT', 'BIT', 'BIT']",5,2009,0,Gibson,18878607.109,20942.048,BIT,99.8774,not reported,18,51.0,38.3722,-87.7661
6124.0,177.6,-14020.0,-0.009,30.000000000000227,['BIT'],1,2009,0,McIntosh,-6363.0,67.873,NG,0.0,not reported,13,103.0,32.3558,-81.1683
6136.0,453.5,3426910.0,0.8626,26.0,['SUB'],1,2009,0,Gibbons Creek,3421022.374,11930.747,SUB,99.8282,not reported,48,185.0,30.6167,-96.0778
6137.0,530.4,2091276.0,0.4557412112031123,26.5,"['BIT', 'BIT']",2,2009,0,A B Brown,2063951.755,5778.035,BIT,97.7985,not reported,18,129.0,37.9053,-87.715
6138.0,558.0,2828214.0,0.5786,31.0,['SUB'],1,2009,0,Flint Creek,2821627.303,6811.486,SUB,99.7671,not reported,5,7.0,36.2561,-94.5241
6139.0,1674.0,10660735.0,0.7275041337862725,29.333333333333258,"['SUB', 'SUB', 'SUB']",3,2009,0,Welsh,10652989.391,27372.032,SUB,99.9273,not reported,48,449.0,33.0583,-94.844
6146.0,2379.6000000000004,17065647.0,0.8207605323021154,31.000000000000455,"['LIG', 'LIG', 'LIG']",3,2009,0,Martin Lake,17047561.688,71842.082,LIG,99.894,not reported,48,401.0,32.2597,-94.5703
6147.0,1980.0,15177809.0,0.8768003955577515,33.097878787878926,"['LIG', 'LIG', 'LIG']",3,2009,0,Monticello,15162762.638,58265.159,SUB,99.9009,not reported,48,449.0,33.0917,-95.0417
6155.0,1242.0,8017188.0,0.7395430085211923,32.5,"['SUB', 'SUB']",2,2009,0,Rush Island,8012316.528,28326.832,SUB,99.9392,not reported,29,99.0,38.1306,-90.2625
6165.0,1472.2,9438683.0,0.7320414945178263,28.653443825567138,"['BIT', 'BIT', 'BIT']",3,2009,0,Hunter,9427809.2,5119.949,BIT,99.8848,not reported,49,15.0,39.1747,-111.0289
6166.0,2600.0,18725635.0,0.8304378932410036,22.5,"['SUB', 'SUB']",2,2009,0,Rockport,18707522.468,54795.883,SUB,99.9033,not reported,18,147.0,37.9256,-87.0372
6170.0,1233.0,7244545.0,0.684610086913671,26.5,"['SUB', 'SUB']",2,2009,0,Pleasant Prairie,7210086.117,987.683,SUB,99.5243,not reported,55,59.0,42.5381,-87.9033
6177.0,821.8,5575038.0,0.7841300657681615,29.499999999999773,"['SUB', 'SUB']",2,2009,0,Coronado,5565186.136,11245.781,SUB,99.8233,not reported,4,1.0,34.5778,-109.2717
6178.0,600.4,5256266.0,0.9994,29.0,['SUB'],1,2009,0,Coleto Creek,5254705.555,21453.352,SUB,99.9703,not reported,48,175.0,28.7128,-97.2142
6179.0,1690.0,11619115.0,0.7854474972577515,27.186390532544465,"['SUB', 'SUB', 'SUB']",3,2009,0,Fayette Power Project,11619115.0,27551.08,SUB,100.0,not reported,48,149.0,29.9172,-96.7506
6180.0,916.8,0.0,0.0,-1.0,['LIG'],1,2009,0,Oak Grove,201707.0611,56.155,LIG,100.0,not reported,48,395.0,31.185,-96.4853
6181.0,932.0,4611461.0,0.5655779152637309,31.521459227467858,"['SUB', 'SUB']",2,2009,0,J T Deely,4607964.489,17043.607,SUB,99.9242,not reported,48,29.0,29.3072,-98.3228
6183.0,410.0,2861774.0,0.7967999999999998,27.0,['LIG'],1,2009,0,San Miguel,2857891.305,11064.405,LIG,99.8643,not reported,48,13.0,28.7044,-98.4781
6190.0,558.0,3272665.0,0.6695,27.0,['SUB'],1,2009,"['NG', 'PC']",Rodemacher,3190637.439,8542.2658,SUB,77.198,not reported,22,79.0,31.395,-92.7167
6193.0,1080.0,7485299.0,0.7937567470317487,31.0,"['SUB', 'SUB', 'SUB']",3,2009,0,Harrington,7461246.137,22150.356,SUB,99.6787,not reported,48,375.0,35.2972,-101.7475
6194.0,1136.0,7236464.0,0.7277606787513902,25.5,"['SUB', 'SUB']",2,2009,0,Tolk,7205596.052,22640.768,SUB,99.5734,not reported,48,279.0,34.1847,-102.5686
6195.0,194.0,1192562.0,0.7017,33.0,['SUB'],1,2009,0,Southwest Power Station,1181478.558,3780.143,SUB,98.9487,not reported,29,77.0,37.1519,-93.3892
6204.1,570.0,3722554.0,0.7455,28.0,['SUB'],1,2009,0,Laramie River 1,3884953.401,2909.791,SUB,99.8582,not reported,56,31.0,42.1103,-104.8828
6204.2,1140.0,7948853.0,0.8001422596568335,27.5,"['SUB', 'SUB']",2,2009,0,Laramie River 2&3,7769906.802,6384.213,SUB,99.8582,not reported,56,31.0,42.1103,-104.8828
6213.0,1080.0,7575021.0,0.8010612958300709,26.5,"['BIT', 'BIT']",2,2009,0,Merom,7566063.197,14629.399,BIT,99.8817,not reported,18,153.0,39.0694,-87.5108
6225.0,14.5,6100.0,0.048,41.0,['BIT'],1,2009,0,Jasper 2,6100.0,94.1716,BIT,100.0,not reported,18,37.0,38.4004,-86.9146
6238.0,22.0,42629.0,0.22119999999999998,42.0,['BIT'],1,2009,['DFO'],Pearl Station,42318.87,1130.7796,BIT,99.2562,not reported,17,149.0,39.4488,-90.6143
6248.0,552.3,2100489.0,0.4342,28.000000000000227,['SUB'],1,2009,0,Pawnee,2090612.822,8539.819,SUB,99.5298,not reported,8,87.0,40.2217,-103.6803
6249.0,1260.0,5863401.0,0.546165442428379,30.75,"['BIT', 'BIT', 'BIT', 'BIT']",4,2009,0,Winyah,5844408.76,4760.041,BIT,99.6761,not reported,45,43.0,33.3303,-79.3611
6250.0,735.8,4059236.0,0.6298,26.0,['BIT'],1,2009,0,Mayo,4035860.464,5931.721,BIT,99.4241,not reported,37,145.0,36.5278,-78.8917
6254.0,726.0,3759760.0,0.5912,28.0,['SUB'],1,2009,0,Ottumwa,3753351.575,13390.548,SUB,99.8296,not reported,19,179.0,41.0961,-92.5556
6257.0,3564.0,22977980.0,0.7458236558043831,23.5,"['SUB', 'SUB', 'SUB', 'SUB']",4,2009,0,Scherer,22971057.08,69522.867,SUB,99.9699,not reported,13,207.0,33.0583,-83.8072
6264.0,1300.0,8978247.0,0.7884,29.0,['BIT'],1,2009,0,Mountaineer,8956852.091,2767.878,BIT,99.7617,not reported,54,53.0,38.9794,-81.9344
6288.0,28.0,213080.0,0.8687000000000001,42.0,['SUB'],1,2009,0,Healy,212943.563,288.8566,SUB,99.936,not reported,2,68.0,63.8542,-148.95
6469.0,869.8,6942247.0,0.9111202932710404,24.0,"['LIG', 'LIG']",2,2009,0,Antelope Valley,6938093.69,14397.875,LIG,99.9402,not reported,38,57.0,47.3714,-101.8344
6481.0,1640.0,13555580.0,0.943573883891357,22.5,"['BIT', 'BIT']",2,2009,0,Intermountain Power Project,13547905.843,5514.029,BIT,99.9434,not reported,49,27.0,39.5108,-112.5792
6639.0,586.0,3183081.0,0.6258290001731027,29.0,"['BIT', 'BIT']",2,2009,0,R D Green,2324792.685,3094.847,BIT,73.0359,not reported,21,233.0,37.6467,-87.5006
6641.0,1700.0,11390089.0,0.7714305268202908,25.5,"['SUB', 'SUB']",2,2009,0,Independence,11377951.663,27425.294,SUB,99.8934,not reported,5,63.0,35.6733,-91.4083
6648.0,590.6,4297157.0,0.8306,28.0,['LIG'],1,2009,0,Sandow No 4,4290588.284,25594.22,LIG,99.8471,not reported,48,331.0,30.5642,-97.0639
6664.0,811.9,4728795.0,0.6649,26.0,['SUB'],1,2009,0,Louisa,4716958.091,2250.1,SUB,99.7497,not reported,19,115.0,41.3153,-91.0936
6705.0,777.6,4422434.0,0.7224134527728396,43.179526748971284,"['BIT', 'BIT', 'BIT', 'BIT']",4,2009,0,Warrick,4401253.24,3482.221,BIT,99.5211,not reported,18,173.0,37.915,-87.3328
6761.0,293.6,2352543.0,0.9146999999999998,25.0,['SUB'],1,2009,0,Rawhide,2352401.473,1060.956,SUB,98.7495,not reported,8,69.0,40.8611,-105.0206
6768.0,261.0,1806798.0,0.7903,28.0,['SUB'],1,2009,0,Sikeston Power Station,1804663.753,6023.139,SUB,99.8819,not reported,29,201.0,36.8791,-89.6209
6772.0,446.0,3100588.0,0.7936,27.0,['SUB'],1,2009,0,Hugo,3098424.365,9702.567,SUB,99.9302,not reported,40,23.0,34.0158,-95.3206
6823.0,566.1,2692080.0,0.5429,24.999999999999773,['BIT'],1,2009,0,D B Wilson,1688352.743,6746.768,BIT,62.7155,not reported,21,183.0,37.4497,-87.0803
7030.0,349.2,2180212.0,0.7127829100564532,18.5,"['LIG', 'LIG']",2,2009,0,Twin Oaks Power One,2031762.273,4705.956,LIG,93.191,not reported,48,395.0,31.0932,-96.6965
7097.0,566.0,3623216.0,0.7308,17.0,['SUB'],1,2009,0,J K Spruce,3613454.528,890.243,SUB,99.7306,not reported,48,29.0,29.3091,-98.3205
7210.0,417.3,2557159.0,0.6995,13.0,['BIT'],1,2009,0,Cope,2555530.162,1595.211,BIT,99.9363,not reported,45,75.0,33.3642,-81.03
7213.0,848.0,5587711.0,0.7524111150344032,13.5,"['BIT', 'BIT']",2,2009,0,Clover,5581403.631,1867.521,BIT,99.8871,not reported,51,83.0,36.8692,-78.7046
7242.0,326.3,0.0,0.0,13.0,"['BIT', 'BIT']",2,2009,0,Polk,1288468.435,952.764,BIT,84.0064,not reported,12,105.0,27.7286,-81.9897
7286.0,200.0,813958.0,0.4766130448991226,21.0,"['BIT', 'BIT', 'BIT', 'BIT']",4,2009,0,Richard Gorsuch,809870.642,12397.0095,BIT,99.4978,not reported,39,167.0,39.3672,-81.5208
7343.0,640.0,3980138.0,0.7098999999999999,30.0,['SUB'],1,2009,0,George Neal South,3974457.729,12220.847,SUB,99.8573,not reported,19,193.0,42.3022,-96.3622
7504.0,80.0,650517.0,0.9281999999999999,14.0,['SUB'],1,2009,['NG'],Neil Simpson II,649754.714,555.824,SUB,95.6161,not reported,56,5.0,44.2853,-105.3841
7537.0,80.0,117704.0,0.168,17.0,['WC'],1,2009,0,North Branch,116569.979,110.882,WC,99.0365,not reported,54,23.0,39.2623,-79.3306
7549.0,11.0,29623.0,0.3074,13.0,['BIT'],1,2009,0,Milwaukee County,24056.126,80.3036,BIT,81.2076,not reported,55,79.0,43.046,-88.0281
7652.0,78.2,107190.0,1.3017,57.00000000000023,"['BIT', 'BIT', 'BIT', 'BIT', 'BIT', 'BIT', 'BIT']",7,2009,0,US DOE Savannah River Site (D Area),107190.0,2959.5259,BIT,100.0,not reported,45,3.0,33.2906,-81.6831
7737.0,99.2,491980.0,0.5662,9.999999999999773,['BIT'],1,2009,0,Cogen South,210930.943,1803.6642,WDS,42.8739,not reported,45,19.0,32.8994,-79.9694
7790.0,499.5,3354006.0,0.7665,23.0,['BIT'],1,2009,0,Bonanza,3350651.975,1026.916,BIT,99.9,not reported,49,47.0,40.0864,-109.2844
7902.0,721.0,3462031.0,0.5481,24.0,['LIG'],1,2009,0,Pirkey,3443520.942,4363.126,LIG,99.4653,not reported,48,203.0,32.4607,-94.4852
8023.0,1023.0,6481444.0,0.7235390425652062,32.50146627565982,"['SUB', 'SUB']",2,2009,0,Columbia,6471849.25,24228.2,SUB,99.852,not reported,55,21.0,43.4864,-89.4203
8042.0,2160.2,14664329.0,0.7753380366329752,34.49999999999977,"['BIT', 'BIT']",2,2009,0,Belews Creek,14639962.447,4219.055,BIT,99.8338,not reported,37,169.0,36.2811,-80.0603
8066.0,2317.7,15188184.0,0.7521030026433707,32.99210424127341,"['SUB', 'SUB', 'SUB', 'SUB']",4,2009,0,Jim Bridger,15170159.309,17308.567,SUB,99.8813,not reported,56,37.0,41.7378,-108.7875
8069.0,996.0,6753764.0,0.7744264251756503,33.5,"['BIT', 'BIT']",2,2009,0,Huntington,6747351.87,3307.831,BIT,99.9051,not reported,49,15.0,39.3792,-111.0781
8102.0,2600.0,19160246.0,0.8412706886539973,34.5,"['BIT', 'BIT']",2,2009,0,General James M Gavin,19141851.417,26265.074,BIT,99.904,not reported,39,53.0,38.9347,-82.1158
8219.0,207.0,1588888.0,0.8762,29.0,['SUB'],1,2009,0,Ray D Nixon,1587665.93,3935.297,SUB,99.6798,not reported,8,41.0,38.6306,-104.7056
8222.0,450.0,2498609.0,0.6338,28.0,['LIG'],1,2009,0,Coyote,2492841.905,12017.272,LIG,99.7692,not reported,38,57.0,47.2217,-101.8139
8223.0,1749.6,8474234.0,0.7048961190474561,11.211934156378447,"['SUB', 'SUB', 'SUB', 'SUB']",4,2009,['SUN'],Springerville,8456485.847,7274.515,SUB,99.7119,not reported,4,1.0,34.3186,-109.1636
8224.0,567.0,3370266.0,0.6840981247770949,25.955555555555748,"['BIT', 'BIT']",2,2009,0,North Valmy,3360690.024,6364.53,BIT,99.7159,not reported,32,13.0,40.8831,-117.1542
8226.0,637.0,2765084.0,0.4955,39.0,['BIT'],1,2009,0,Cheswick Power Plant,2759657.465,32746.417,BIT,99.8037,not reported,42,3.0,40.5383,-79.7906
10002.0,108.0,783300.0,0.8279,19.0,['BIT'],1,2009,0,ACE Cogeneration Facility,781973.502,5158.4586,BIT,99.8307,not reported,6,71.0,35.7632,-117.3847
10003.0,35.4,195350.952,0.6783870395466515,28.59604519773984,"['BIT', 'BIT', 'BIT', 'BIT']",4,2009,0,Colorado Energy Nations Company,181879.858,388.3293,BIT,93.1042,not reported,8,59.0,39.7606,-105.215
10025.0,129.9,362382.0,0.4312736366596575,39.39107005388769,"['BIT', 'BIT', 'BIT', 'BIT', 'BIT', 'BIT']",6,2009,0,Kodak Park Site,318907.932,3036.641,BIT,88.0032,not reported,36,55.0,43.1969,-77.6289
10030.0,18.0,73959.0,0.46900000000000003,24.0,['BIT'],1,2009,0,NRG Energy Center Dover,73959.0,698.497,BIT,79.3424,not reported,10,1.0,39.1467,-75.5461
10039.0,10.0,0.0,0.0,58.450000000000045,"['BIT', 'BIT', 'BIT', 'BIT']",4,2009,0,John Deere Harvester Works,6205.0,182.2381,BIT,100.0,not reported,17,161.0,41.5294,-90.4361
10043.0,242.3,998419.0,0.4704,15.0,['BIT'],1,2009,0,Logan Generating Company LP,993360.396,673.8105,BIT,99.4933,not reported,34,15.0,39.7914,-75.4081
10071.0,114.8,153723.0,0.15775037957885288,21.0,"['BIT', 'BIT']",2,2009,0,Cogentrix Virginia Leasing Corporation,153723.0,482.6164,BIT,100.0,not reported,51,740.0,36.8703,-76.3519
10075.0,252.0,1058263.0,0.48140430214417396,48.66666666666674,"['SUB', 'SUB', 'SUB']",3,2009,0,Taconite Harbor Energy Center,1056429.666,3561.565,SUB,99.8268,not reported,27,31.0,47.5314,-90.9111
10111.0,28.9,37220.0,0.147,22.0,['BIT'],1,2009,0,DTE Pontiac North LLC,37220.0,142.3469,BIT,100.0,not reported,26,125.0,42.6602,-83.2982
10113.0,88.4,558066.0,0.7207,21.0,['WC'],1,2009,0,John B Rich Memorial Power Station,558066.0,579.2935,WC,100.0,not reported,42,107.0,40.79,-76.1984
10143.0,118.0,895206.0,0.866,14.0,['WC'],1,2009,0,Colver Power Project,895206.0,30758.672,WC,100.0,not reported,42,21.0,40.55,-78.8
10148.0,60.0,15301.0,0.05117208025619241,55.0,"['BIT', 'BIT', 'BIT']",3,2009,0,White Pine Electric Power,15041.274,185.097,BIT,98.3026,not reported,26,131.0,46.7644,-89.5669
10149.0,7.5,42814.0,0.6517,52.0,['BIT'],1,2009,0,Decorative Panels Intl,19217.362,121.1867,WDS,44.8857,not reported,26,7.0,45.0583,-83.4583
10151.0,95.7,629778.0,0.7512,17.000000000000227,['WC'],1,2009,0,Grant Town Power Plant,629778.0,1419.396,WC,100.0,not reported,54,49.0,39.5611,-80.1642
10202.0,74.4,394444.185,0.6052,27.0,['BIT'],1,2009,['WDL'],Jefferson Smurfit Fernandina Beach,200043.215,1196.6595,BLQ,30.42,not reported,12,89.0,30.6833,-81.4592
10207.0,17.2,51904.0,0.48424452065351414,66.0,"['BIT', 'BIT']",2,2009,0,Ashland Inc,51197.41,614.2451,BIT,98.6387,not reported,29,163.0,39.4261,-91.0258
10208.0,81.2,384404.23400000005,0.5407640909210172,31.354679802955843,"['BIT', 'BIT']",2,2009,['BLQ'],Escanaba Paper Company,72722.669,1173.676,WDS,13.3581,not reported,26,41.0,45.8044,-87.0891
10223.0,8.5,48670.0,0.6536,27.0,['SUB'],1,2009,0,AG Processing Inc,48670.0,83.2517,SUB,100.0,not reported,19,197.0,42.6642,-93.9042
10234.0,61.6,273767.733,0.511547134357503,40.81493506493507,"['SUB', 'SUB', 'BIT', 'SUB']",4,2009,0,Biron Mill,261096.864,1544.1327,SUB,95.3717,not reported,55,141.0,44.43,-89.78
10244.0,27.2,193877.03,0.8136999999999999,31.0,['BIT'],1,2009,"['BLQ', 'BLQ', 'BLQ']",P H Glatfelter Co -Chillicothe Facility,235878.694,4901.2117,BIT,43.2103,not reported,39,141.0,39.3265,-82.9744
10302.0,4.0,0.0,0.0,54.0,"['BIT', 'BIT']",2,2009,0,Juniata Locomotive Shop,1297.86,86.0821,BIT,100.0,not reported,42,13.0,40.5319,-78.3858
10328.0,85.0,317569.29099999997,0.46660204252211535,23.7705882352941,"['BIT', 'BIT', 'BIT', 'BIT', 'BIT']",5,2009,['NG'],T B Simon Power Plant,288024.924,1350.1438,BIT,89.3004,not reported,26,65.0,42.7178,-84.4836
10333.0,125.0,724381.0,0.6615,21.0,['BIT'],1,2009,0,Central Power & Lime,721972.895,3255.044,BIT,99.6676,not reported,12,53.0,28.5814,-82.4303
10343.0,47.3,292856.0,0.7068,18.999999999999773,['WC'],1,2009,0,Foster Wheeler Mt Carmel Cogen,292837.979,300.515,WC,99.9938,not reported,42,97.0,40.8092,-76.4539
10360.0,129.0,573585.144,0.5324956603940566,28.804651162790606,"['BIT', 'BIT', 'BIT', 'BIT', 'BIT']",5,2009,0,Green Bay West Mill,341274.84,4201.3595,BIT,59.4985,not reported,55,9.0,44.4936,-88.0303
10362.0,114.0,419416.0,0.4400338828275507,29.048245614035068,"['SUB', 'SUB', 'SUB']",3,2009,0,Muskogee Mill,398274.225,761.0083,SUB,94.9592,not reported,40,101.0,35.7322,-95.2939
10377.0,114.8,165847.0,0.1649554016653904,21.0,"['BIT', 'BIT']",2,2009,0,James River Cogeneration,165847.0,391.9296,BIT,100.0,not reported,51,670.0,37.2939,-77.2697
10378.0,135.0,37060.0,0.03304636805180788,22.0,"['BIT', 'BIT']",2,2009,0,Primary Energy Southport,27773.603,548.0795,BIT,74.9423,not reported,37,19.0,33.9444,-78.0125
10379.0,67.5,26378.0,0.0446,22.0,['BIT'],1,2009,0,Primary Energy Roxboro,14678.421,463.4075,BIT,55.6465,not reported,37,145.0,36.435,-78.9619
10380.0,34.7,4193.0,0.0138,24.000000000000227,['BIT'],1,2009,0,Elizabethtown Power LLC,4193.0,29.3502,BIT,100.0,not reported,37,17.0,34.6474,-78.6407
10382.0,34.7,4254.0,0.014,24.000000000000227,['BIT'],1,2009,0,Lumberton,4254.0,24.4633,BIT,100.0,not reported,37,155.0,34.59,-78.9968
10384.0,114.8,416104.0,0.4138379938669179,19.0,"['BIT', 'BIT']",2,2009,0,Edgecombe Genco LLC,414484.779,140.5481,BIT,99.6109,not reported,37,65.0,36.0378,-77.7542
10417.0,5.7,14291.0,0.2862,24.0,['BIT'],1,2009,0,Indian Orchard Plant 1,14291.0,44.1083,BIT,100.0,not reported,25,13.0,42.1578,-72.5239
10430.0,26.1,68923.613,0.34307976146143127,62.83524904214573,"['BIT', 'BIT', 'BIT']",3,2009,0,Anheuser Busch St Louis,61287.33,757.1764,BIT,88.9207,not reported,29,510.0,38.5961,-90.2128
10464.0,55.5,77106.0,0.1586,20.0,['BIT'],1,2009,0,Black River Generation,47190.543,188.04,BIT,61.2022,not reported,36,45.0,44.0361,-75.7712
10474.0,135.0,0.0,0.0,46.0,"['BIT', 'BIT']",2,2009,0,4 AC Station,0.0,0.801,NG,0.0,not reported,18,89.0,41.68,-87.4264
10476.0,4.1,29522.0,0.822,58.0,['SUB'],1,2009,0,Whiting Mill,17733.618,33.2064,SUB,60.0692,not reported,55,97.0,44.4872,-89.5703
10495.0,102.6,456448.0,0.5079,19.0,['BIT'],1,2009,0,Rumford Cogeneration,32657.245,1026.904,TDF,7.1546,not reported,23,17.0,44.5513,-70.5414
10504.0,10.2,42112.038,0.4748774217077787,33.03921568627402,"['BIT', 'BIT', 'BIT']",3,2009,0,Amalgamated Sugar Twin Falls,40238.829,164.5027,BIT,95.5518,not reported,16,83.0,42.5328,-114.4328
10566.0,285.0,967184.767,0.3874,15.0,['BIT'],1,2009,0,Chambers Cogeneration LP,963642.778,651.2334,BIT,99.6338,not reported,34,33.0,39.6928,-75.4867
10603.0,57.6,440658.0,0.8733000000000001,19.0,['WC'],1,2009,0,Ebensburg Power,440658.0,2029.5602,WC,100.0,not reported,42,21.0,40.455,-78.7472
10640.0,60.0,402767.0,0.7663000000000001,21.0,['BIT'],1,2009,0,Stockton Cogen,227707.959,231.7659,BIT,56.5359,not reported,6,77.0,37.9119,-121.2611
10641.0,98.0,623461.0,0.7262,18.0,['WC'],1,2009,0,Cambria Cogen,623461.0,5213.1735,WC,100.0,not reported,42,21.0,40.4748,-78.7021
10671.0,350.0,2015578.0,0.6574527071639003,19.0,"['BIT', 'BIT']",2,2009,0,AES Shady Point LLC,2015578.0,3500.5296,SUB,100.0,not reported,40,79.0,35.1931,-94.6458
10672.0,291.6,1595659.0,0.6247,15.0,['BIT'],1,2009,0,Cedar Bay Generating Company LP,1591021.895,1008.0157,BIT,99.7094,not reported,12,31.0,30.4219,-81.6079
10673.0,203.0,1484934.0,0.835,17.0,['SUB'],1,2009,0,AES Hawaii,1440062.722,6078.2718,BIT,96.9782,not reported,15,3.0,21.3033,-158.1064
10675.0,213.9,1460572.0,0.7795000000000001,20.0,['BIT'],1,2009,0,AES Thames,1458557.951,844.035,BIT,99.8621,not reported,9,11.0,41.4282,-72.1005
10676.0,149.0,900156.0,0.7072128011144735,22.0,"['BIT', 'BIT']",2,2009,0,AES Beaver Valley Partners Beaver Valley,898496.361,2236.1151,BIT,99.8156,not reported,42,7.0,40.6558,-80.3556
10678.0,229.0,1147798.0,0.5722,10.0,['BIT'],1,2009,0,AES Warrior Run Cogeneration Facility,1142845.85,998.8873,BIT,99.5686,not reported,24,1.0,39.5944,-78.7456
10684.0,55.0,375654.486,0.7799267988121404,31.0,"['BIT', 'BIT']",2,2009,0,Argus Cogen Plant,372745.897,35.0205,BIT,99.2257,not reported,6,71.0,35.765,-117.3833
10729.0,25.0,29947.0,0.1367,24.0,['BIT'],1,2009,0,Cargill Corn Wet Milling Plant,28692.436,356.7113,BIT,95.8107,not reported,47,157.0,35.0828,-90.1372
10743.0,68.9,413403.0,0.6848999999999998,17.999999999999773,['WC'],1,2009,0,Morgantown Energy Facility,413403.0,507.3239,BIT,100.0,not reported,54,61.0,39.6397,-79.9606
10768.0,38.2,292203.0,0.8732,20.0,['SUB'],1,2009,0,Rio Bravo Jasmin,150265.972,2446.2975,BIT,51.4252,not reported,6,29.0,35.7415,-119.0512
10769.0,38.2,288136.0,0.8611,20.0,['BIT'],1,2009,0,Rio Bravo Poso,154181.16,2396.2728,BIT,53.5099,not reported,6,29.0,35.5556,-119.0832
10771.0,71.1,103516.0,0.1662,17.0,['BIT'],1,2009,0,Hopewell Power Station,103330.73,12.9771,BIT,99.821,not reported,51,670.0,37.2969,-77.2833
10773.0,71.1,129685.0,0.2082,17.0,['BIT'],1,2009,0,Altavista Power Station,116618.636,21.9752,BIT,89.9245,not reported,51,31.0,37.1183,-79.2726
10774.0,71.1,117082.0,0.188,17.0,['BIT'],1,2009,0,Southampton Power Station,116153.273,28.416,BIT,99.2068,not reported,51,175.0,36.6525,-76.9953
10784.0,41.5,286606.0,0.7884,19.0,['WC'],1,2009,0,Colstrip Energy LP,285569.392,1641.5549,WC,99.6383,not reported,30,87.0,45.9752,-106.6547
10793.0,20.0,16838.861,0.10696245172402098,70.0,"['BIT', 'BIT']",2,2009,0,Seaford Delaware Plant,16175.391,100.7508,BIT,96.0599,not reported,10,5.0,38.6311,-75.6261
10795.0,30.0,18939.037,0.3148592439520552,31.033333333333303,"['BIT', 'BIT', 'BIT']",3,2009,0,Camden South Carolina,18939.037,55.2018,BIT,100.0,not reported,45,55.0,34.2338,-80.6558
10796.0,9.4,0.0,0.0,73.48936170212778,"['BIT', 'BIT', 'BIT']",3,2009,0,Waynesboro Virginia Plant,83.847,95.688,BIT,95.2807,not reported,51,15.0,38.0602,-78.8839
10849.0,131.6,542707.0,0.4726151964135344,49.65957446808511,"['SUB', 'SUB']",2,2009,0,Silver Bay Power,534499.151,1120.3516,SUB,98.4876,not reported,27,75.0,47.286,-91.26
10855.0,40.0,101335.66,0.4195960290345965,57.0,"['SUB', 'SUB']",2,2009,0,Cargill Corn Milling Division,101335.66,182.1495,SUB,100.0,not reported,19,135.0,41.1386,-92.6467
10860.0,180.0,521366.0,0.3615075363564175,0.0,"['SUB', 'SUB']",2,2009,0,Archer Daniels Midland Clinton,437225.029,2255.8677,SUB,83.8614,not reported,19,45.0,41.8206,-90.2097
10861.0,7.9,24251.0,0.3504,21.0,['SUB'],1,2009,0,Archer Daniels Midland Des Moines,24251.0,50.3044,SUB,100.0,not reported,19,153.0,41.5997,-93.5997
10862.0,7.9,42034.0,0.6074,21.0,['SUB'],1,2009,0,Archer Daniels Midland Lincoln,42034.0,73.5806,SUB,100.0,not reported,31,109.0,40.9,-96.5997
10863.0,6.1,18664.0,0.3493,22.0,['SUB'],1,2009,0,Archer Daniels Midland Mankato,18664.0,60.0146,SUB,100.0,not reported,27,13.0,44.2,-94.0
10864.0,256.1,602407.0,0.2990103064871424,15.415462709879193,"['SUB', 'SUB', 'SUB', 'SUB', 'SUB', 'SUB']",6,2009,0,Archer Daniels Midland Cedar Rapids,579884.894,3284.6823,SUB,96.2613,not reported,19,113.0,41.9221,-91.6875
10865.0,335.0,1185265.0,0.45618134045972847,13.471641791044703,"['BIT', 'BIT', 'BIT', 'BIT', 'BIT', 'BIT', 'BIT']",7,2009,0,Archer Daniels Midland Decatur,1173559.685,7729.481,BIT,99.0124,not reported,17,115.0,39.8675,-88.885
10866.0,15.0,53630.0,0.5511204829386537,42.4666666666667,"['BIT', 'BIT', 'BIT', 'BIT', 'BIT']",5,2009,0,Archer Daniels Midland Peoria,10265.522,229.859,NG,4.5784,not reported,17,143.0,40.6776,-89.6069
10867.0,62.0,320159.0,0.5895,20.0,['BIT'],1,2009,0,Tate & Lyle Decatur Plant Cogen,320159.0,406.8683,BIT,100.0,not reported,17,115.0,39.8492,-88.9276
50039.0,57.5,410385.0,0.8147,20.0,['WC'],1,2009,0,Kline Township Cogen Facility,408648.458,792.609,WC,99.5769,not reported,42,107.0,40.8737,-75.9936
50041.0,5.6,0.0,0.0,61.696428571428214,"['BIT', 'BIT']",2,2009,0,Norton Powerhouse,8000.514,19.8995,BIT,51.3248,not reported,25,27.0,42.3075,-71.8019
50088.0,7.5,18550.0,0.2823,27.0,['BIT'],1,2009,0,University of Northern Iowa,13273.927,292.2418,BIT,71.5576,not reported,19,13.0,42.5158,-92.4572
50130.0,120.0,440851.0,0.4306836745294896,51.0,"['SUB', 'SUB']",2,2009,0,G F Weaton Power Station,438207.191,1399.1386,SUB,99.4003,not reported,42,7.0,40.6672,-80.3465
50146.0,11.7,0.0,0.0,42.53846153846143,"['BIT', 'BIT', 'BIT', 'BIT']",4,2009,0,Imperial Savannah LP,0.0,0.0,NG,0.0,not reported,13,51.0,32.1491,-81.1449
50151.0,6.0,12283.0,0.2337,56.0,['BIT'],1,2009,0,Union Carbide South Charleston,4787.1,130.7534,NG,38.9734,not reported,54,39.0,38.3688,-81.6786
50240.0,41.4,78670.99100000001,0.22204656128330705,20.657004830917913,"['BIT', 'BIT']",2,2009,['DFO'],Purdue University,77969.361,701.5868,BIT,99.0868,not reported,18,157.0,40.4172,-86.9117
50244.0,52.5,356061.0,0.7771473994624517,55.57142857142867,"['BIT', 'BIT', 'BIT', 'BIT', 'BIT', 'BIT']",6,2009,0,Canton North Carolina,178014.217,1217.896,BIT,49.9954,not reported,37,87.0,35.535,-82.8411
50247.0,45.3,41672.219,0.28320104180677297,42.649006622516254,"['BIT', 'BIT', 'BIT', 'BIT', 'BIT', 'BIT', 'BIT']",7,2009,0,Smart Papers LLC,41672.219,484.0681,BIT,100.0,not reported,39,17.0,39.4086,-84.5622
50252.0,20.4,69103.0,0.3867,27.0,['BIT'],1,2009,0,International Paper Sartell Mill,47614.741,334.5121,BIT,48.9441,not reported,27,9.0,45.6183,-94.2005
50254.0,22.5,148692.979,0.7544,43.0,['BIT'],1,2009,0,KapStone Kraft Paper Corp,107947.62,270.2574,BIT,72.5977,not reported,37,83.0,36.4769,-77.6414
50275.0,19.1,28879.101,0.2477254363769842,25.680628272251397,"['BIT', 'BIT']",2,2009,0,Park 500 Philip Morris USA,28879.101,112.0755,BIT,100.0,not reported,51,41.0,37.3363,-77.2795
50282.0,65.0,396014.0,0.6956850889109981,41.30769230769238,"['BIT', 'BIT']",2,2009,0,Luke Mill,228890.515,2418.7388,BIT,57.7986,not reported,24,1.0,39.4722,-79.0575
50284.0,17.5,44823.0,0.6822,66.11428571428564,"['BIT', 'BIT', 'BIT', 'BIT']",4,2009,0,American Eagle Paper Mills,44823.0,330.1837,BIT,100.0,not reported,42,13.0,40.6792,-78.2361
50308.0,22.5,95819.695,0.6489355432377446,47.55555555555566,"['SUB', 'SUB', 'SUB', 'SUB', 'SUB']",5,2009,0,Utility Plants Section,95819.695,137.0993,SUB,100.0,not reported,2,90.0,64.6715,-147.0772
50316.0,2.0,10311.0,0.5885,59.0,['BIT'],1,2009,0,Bunge North America East LLC,10311.0,165.7002,BIT,100.0,not reported,18,1.0,40.8411,-84.9244
50366.0,21.1,77053.0,0.6772484264077973,30.26066350710903,"['BIT', 'BIT', 'BIT', 'BIT', 'BIT']",5,2009,0,University of Notre Dame,41872.109,392.6284,BIT,54.2497,not reported,18,141.0,41.7094,-86.2367
50392.0,25.0,73163.0,0.48000521848475325,39.0,"['SUB', 'SUB', 'SUB', 'SUB', 'SUB']",5,2009,0,Eielson AFB Central Heat & Power Plant,73163.0,113.2389,SUB,99.839,not reported,2,90.0,64.6711,-147.0719
50395.0,22.0,133558.0,0.7068971577891253,47.09090909090901,"['BIT', 'BIT']",2,2009,['BLQ'],Georgia-Pacific Corp - Nekoosa Mill,92187.418,822.6651,BIT,40.4551,not reported,55,141.0,44.3142,-89.8964
50397.0,70.4,432096.58999999997,0.7991599957190128,30.51420454545473,"['BIT', 'BIT', 'BIT', 'BIT', 'BIT']",5,2009,['BLQ'],P H Glatfelter,332432.273,2597.5707,BIT,49.4477,not reported,42,133.0,39.8717,-76.8664
50398.0,71.2,297812.0,0.4774999999999999,28.0,['BIT'],1,2009,['BLQ'],International Paper Savanna Mill,171763.778,1128.2948,BLQ,27.7413,not reported,13,51.0,32.1047,-81.1222
50407.0,78.80000000000001,386023.0,1.0224,24.000000000000227,"['BIT', 'BIT']",2,2009,0,Mobile Energy Services LLC,110222.629,418.918,WDS,28.5534,not reported,1,97.0,30.7322,-88.0769
50410.0,67.0,335287.785,0.5713,23.0,['WC'],1,2009,0,Chester Operations,197000.495,190.1468,WC,58.7556,not reported,42,45.0,39.8439,-75.3575
50438.0,50.900000000000006,9552.0,0.023234924623115577,31.38703339882136,"['BIT', 'BIT', 'BIT']",3,2009,0,S D Warren Muskegon,5952.729,0.8155,BIT,62.3192,not reported,26,121.0,43.215,-86.3041
50456.0,12.5,30506.0,0.2786,44.0,['BIT'],1,2009,0,Procter & Gamble Cincinnati Plant,29779.152,207.9416,BIT,97.6174,not reported,39,61.0,39.1754,-84.5024
50476.0,15.7,97116.103,0.711644515588728,43.038216560509454,"['BIT', 'BIT']",2,2009,0,Packaging of America Tomahawk Mill,44180.203,778.4213,BIT,41.7499,not reported,55,69.0,45.4431,-89.7342
50481.0,194.30000000000004,1097365.864,0.6792988138861954,39.06948018528033,"['BIT', 'BIT', 'BIT', 'BIT', 'BIT', 'BIT', 'BIT', 'BIT', 'BIT', 'BIT', 'BIT', 'BIT', 'BIT', 'BIT', 'BIT', 'BIT', 'BIT', 'BIT', 'BIT']",19,2009,0,Tennessee Eastman Operations,1070171.954,2767.6497,BIT,97.5219,not reported,47,163.0,36.5192,-82.535
50491.0,123.0,329518.304,0.579613948287073,48.34146341463406,"['BIT', 'BIT', 'BIT', 'BIT']",4,2009,0,PPG Natrium Plant,293650.285,1540.7772,BIT,89.115,not reported,54,51.0,39.7475,-80.8547
50611.0,36.0,230292.0,0.7303000000000001,22.0,['WC'],1,2009,0,WPS Westwood Generation LLC,229350.784,307.993,WC,99.5913,not reported,42,107.0,40.6191,-76.45
50636.0,0.6,1136.84,0.2163,50.00000000000023,['BIT'],1,2009,0,Wausau Paper Mills LLC,1136.84,5.301,BIT,6.4047,not reported,27,35.0,46.3758,-94.1817
50651.0,101.1,91525.511,0.5557760819701951,16.857566765578667,"['BIT', 'BIT']",2,2009,0,Trigen Syracuse Energy,91247.918,278.711,BIT,99.6967,not reported,36,67.0,43.0653,-76.2086
50711.0,13.0,45272.384,0.4789997916544444,31.923076923076906,"['SUB', 'SUB', 'SUB']",3,2009,['DFO'],University of Alaska Fairbanks,39286.39,63.9928,SUB,82.5244,not reported,2,90.0,64.8542,-147.822
50776.0,94.0,676045.0,0.821,17.0,['WC'],1,2009,0,Panther Creek Energy Facility,674892.508,1134.4663,WC,99.8295,not reported,42,25.0,40.8556,-75.8781
50805.0,70.5,244517.322,0.4217595023979528,40.01560283687945,"['SUB', 'SUB']",2,2009,0,Catalyst Paper Inc. - Snowflake Mill,242757.368,407.334,SUB,99.2802,not reported,4,17.0,34.5025,-110.3361
50806.0,79.1,387297.634,0.5589,22.0,['BIT'],1,2009,"['BLQ', 'BLQ']",Stone Container Florence Mill,66708.078,667.8215,WDS,12.6847,not reported,45,41.0,34.1519,-79.5587
50812.0,15.6,41032.485,0.3003,43.0,['BIT'],1,2009,0,Stone Container Ontonagon Mill,40027.19,216.4789,BIT,97.55,not reported,26,131.0,46.87,-89.3261
50835.0,70.0,501694.0,0.8182,19.0,['BIT'],1,2009,0,TES Filer City Station,368939.28,544.3019,BIT,73.5387,not reported,26,101.0,44.217,-86.2906
50879.0,48.0,372364.0,0.8856,21.0,['WC'],1,2009,0,Wheelabrator Frackville Energy,372364.0,558.028,WC,100.0,not reported,42,107.0,40.7817,-76.1781
50888.0,114.1,811094.0,0.8115,14.0,['WC'],1,2009,0,Northampton Generating Company LP,698989.196,470.7463,WC,86.1786,not reported,42,95.0,40.6917,-75.4792
50903.0,7.4,32781.15,0.5057,25.0,['BIT'],1,2009,0,Sagamore Plant Cogeneration,32781.15,398.9961,BIT,100.0,not reported,18,157.0,40.4439,-86.86
50933.0,23.3,45930.0,0.5608622338340954,57.09442060085826,"['BIT', 'BIT', 'BIT']",3,2009,0,Rhinelander Mill,37604.263,327.5931,BIT,74.3079,not reported,55,85.0,45.6394,-89.4205
50951.0,58.1,410933.0,0.8074,16.0,['WC'],1,2009,0,Sunnyside Cogen Associates,410933.0,1249.8362,WC,100.0,not reported,49,7.0,39.5472,-110.3917
50969.0,53.0,100851.0,0.37181834091878113,28.207547169811278,"['BIT', 'BIT', 'BIT', 'BIT']",4,2009,0,University of Missouri Columbia,97173.529,1464.9128,BIT,92.8309,not reported,29,19.0,38.9461,-92.3328
50974.0,94.7,719003.0,0.8666999999999999,16.0,['WC'],1,2009,0,Scrubgrass Generating Company LP,718530.745,1258.4076,WC,99.9343,not reported,42,121.0,41.2678,-79.8114
50976.0,395.4,1491855.0,0.4307,13.999999999999773,['BIT'],1,2009,0,Indiantown Cogeneration LP,1469256.758,1510.7246,BIT,98.4852,not reported,12,85.0,27.0393,-80.5144
51000.0,20.0,87478.0,0.4993,20.0,['BIT'],1,2009,0,Bunge Milling Cogen,87478.0,1244.2689,BIT,100.0,not reported,17,183.0,40.1267,-87.6233
52007.0,139.8,395611.0,0.3231228593239318,17.0,"['BIT', 'BIT']",2,2009,0,Mecklenburg Power Station,390049.309,256.7283,BIT,98.5942,not reported,51,117.0,36.6009,-78.53
52017.0,4.0,0.0,0.0,54.5,"['BIT', 'BIT']",2,2009,0,Menominee Acquisition,9135.46,58.3644,BIT,100.0,not reported,26,109.0,45.0975,-87.5958
52048.0,11.0,31877.158,0.3331461733727956,20.59090909090901,"['BIT', 'BIT']",2,2009,0,Vanderbilt University Power Plant,28061.819,157.1494,BIT,44.2329,not reported,47,37.0,36.1456,-86.8042
52071.0,661.5,0.0,0.0,-1.0,['LIG'],1,2009,0,Sandow Station,613682.4585,387.011,LIG,100.0,not reported,48,331.0,30.5681,-97.0614
52072.0,24.0,33593.0,0.2103505670824279,19.0,"['BIT', 'BIT', 'BIT', 'BIT']",4,2009,0,Radford Army Ammunition Plant,33489.841,306.715,BIT,99.6929,not reported,51,121.0,37.1744,-80.6425
52089.0,27.2,166073.32400000002,0.7326447239027983,58.44117647058829,"['BIT', 'BIT', 'BIT', 'BIT']",4,2009,0,DEGS of Narrows LLC,156845.765,871.8699,BIT,94.4437,not reported,51,71.0,37.3451,-80.764
54004.0,45.0,136324.188,0.3458,20.0,['BIT'],1,2009,['NG'],Dublin Mill,82559.694,658.0354,BIT,56.8812,not reported,13,175.0,32.5036,-82.8443
54035.0,182.3,1139211.0,0.7134,15.0,['BIT'],1,2009,0,Roanoke Valley Energy Facililty I,1135947.435,427.4152,BIT,99.7135,not reported,37,83.0,36.4364,-77.6167
54081.0,229.6,980625.0,0.5132585315487571,17.0,"['BIT', 'BIT', 'BIT', 'BIT']",4,2009,0,Spruance Genco LLC,956465.019,369.6813,BIT,97.5363,not reported,51,760.0,37.4556,-77.4308
54098.0,12.0,54674.0,0.5201,42.0,['BIT'],1,2009,"['BLQ', 'BLQ', 'BLQ']",International Paper Kaukauna Mill,68486.479,1063.8249,BIT,38.3154,not reported,55,87.0,44.2826,-88.2534
54144.0,36.2,271574.0,0.8564,17.0,['WC'],1,2009,0,Piney Creek Project,267438.126,4114.4994,WC,98.4771,not reported,42,31.0,41.1776,-79.4418
54201.0,46.0,126293.413,0.39730395914472594,26.56304347826085,"['BIT', 'BIT', 'BIT', 'BIT']",4,2009,0,Iowa State University,126293.413,565.6247,BIT,100.0,not reported,19,169.0,42.0275,-93.6394
54210.0,13.3,82839.94,0.711,19.0,['SUB'],1,2009,0,American Crystal Sugar Hillsboro,82839.94,248.4963,SUB,100.0,not reported,38,97.0,47.9339,-97.0821
54211.0,5.0,0.0,0.0,55.799999999999955,"['SUB', 'SUB']",2,2009,0,American Crystal Sugar Moorhead,32099.24,81.9919,SUB,100.0,not reported,27,27.0,46.9433,-96.8569
54212.0,6.5,0.0,0.0,45.30769230769238,"['SUB', 'SUB']",2,2009,0,American Crystal Sugar Crookston,32725.86,84.5676,SUB,100.0,not reported,27,119.0,47.7775,-96.6031
54213.0,6.0,36197.49,0.6887,44.0,['SUB'],1,2009,0,American Crystal Sugar Drayton,36197.49,80.4269,SUB,100.0,not reported,38,67.0,48.0622,-97.1867
54214.0,7.5,0.0,0.0,19.0,"['SUB', 'SUB']",2,2009,0,American Crystal Sugar East Grand Forks,43082.55,176.4285,SUB,100.0,not reported,27,119.0,47.9347,-97.0353
54216.0,12.5,51800.0,0.4731,41.0,['BIT'],1,2009,['BLQ'],U S Alliance Coosa Pines,63931.309,837.3607,BLQ,44.2453,not reported,1,121.0,33.3278,-86.3583
54238.0,54.0,50695.0,0.1072,22.0,['BIT'],1,2009,0,Port of Stockton District Energy Fac,50695.0,119.7563,BIT,100.0,not reported,6,77.0,37.9414,-121.3396
54276.0,28.0,50900.0,0.2075,18.0,['BIT'],1,2009,0,Univ of NC Chapel Hill Cogen Facility,49726.575,253.8025,BIT,97.6946,not reported,37,135.0,35.9069,-79.0617
54304.0,258.3,493807.0,0.21819999999999998,13.0,['BIT'],1,2009,0,Birchwood Power,485466.126,1095.5408,BIT,98.3109,not reported,51,99.0,38.2667,-77.3147
54318.0,30.0,204754.0,0.7865146341463414,36.5,"['SUB', 'SUB']",2,2009,0,General Chemical,195775.595,817.4649,BIT,95.615,not reported,56,37.0,41.5933,-109.7542
54335.0,1.5,7992.8,0.6083,31.0,['BIT'],1,2009,0,Morton Salt Rittman,7908.842,108.3354,BIT,98.9496,not reported,39,169.0,40.9692,-81.7756
54406.0,3.0,0.0,0.0,45.5,"['BIT', 'BIT']",2,2009,0,Capitol Heat and Power,5313.695,22.373,NG,12.7733,not reported,55,25.0,43.0785,-89.3773
54407.0,2.0,0.0,0.0,58.0,"['BIT', 'BIT']",2,2009,0,Waupun Correctional Central Heating Plt,2569.845,19.0117,BIT,73.8461,not reported,55,27.0,43.6233,-88.7297
54408.0,9.7,35013.12,0.4121,43.99999999999977,['BIT'],1,2009,0,Univ of Wisc Madison Charter Sreet Plant,21132.232,177.0786,BIT,60.3552,not reported,55,25.0,43.07,-89.4006
54414.0,11.0,1327.0,0.01593496608892238,49.77272727272725,"['BIT', 'BIT']",2,2009,0,John Deere Dubuque Works,919.18,398.9225,BIT,62.7427,not reported,19,61.0,42.5734,-90.6923
54533.0,7.5,0.97,0.0,33.0,['SUB'],1,2009,0,Southern Minnesota Beet Sugar,0.901,160.2021,SUB,92.8866,not reported,27,129.0,44.7914,-95.1731
54556.0,45.0,284365.957,0.7214696759419061,18.0,"['BIT', 'BIT']",2,2009,0,Corn Products Illinois,125254.851,495.893,BIT,43.9394,not reported,17,31.0,41.7775,-87.8233
54626.0,62.0,384140.0,0.7073,20.0,['BIT'],1,2009,0,Mt Poso Cogeneration,312377.398,1004.4344,BIT,81.3186,not reported,6,29.0,35.5765,-119.0061
54634.0,99.2,643027.0,0.74,19.0,['WC'],1,2009,0,St Nicholas Cogen Project,643027.0,1542.5422,WC,100.0,not reported,42,107.0,40.8222,-76.1736
54690.0,8.7,0.0,0.0,47.0919540229886,"['SUB', 'SUB', 'SUB']",3,2009,0,Amalgamated Sugar LLC Nampa,42325.95,322.2222,BIT,100.0,not reported,16,27.0,43.6058,-116.5753
54755.0,57.8,346946.0,0.6852,14.0,['BIT'],1,2009,0,Roanoke Valley Energy Facility II,346371.33,133.9268,BIT,99.8344,not reported,37,83.0,36.4364,-77.6167
54775.0,21.0,72506.493,0.39601538898040484,41.42857142857133,"['BIT', 'BIT', 'BIT']",3,2009,['DFO'],University of Iowa Main Power Plant,55427.971,486.9473,BIT,76.43,not reported,19,103.0,41.6572,-91.54
54780.0,47.0,60087.692,0.3402773034451048,18.88297872340422,"['BIT', 'BIT', 'BIT', 'BIT', 'BIT']",5,2009,"['NG', 'NG']",University of Illinois Abbott Power Plt,50427.29,365.8333,NG,18.3614,not reported,17,19.0,40.1119,-88.2425
54867.0,6.2,37923.12,0.6982,79.0,['BIT'],1,2009,0,Neenah Paper Munising Mill,37670.603,184.0818,BIT,99.3341,not reported,26,3.0,46.4094,-86.6443
54965.0,2.0,10274.0,0.5864,41.0,['BIT'],1,2009,0,Cargill Salt,9619.488,95.4142,BIT,93.6294,not reported,26,147.0,42.8183,-82.4856
55076.0,513.7,3348109.0,0.744,8.0,['LIG'],1,2009,0,Red Hills Generating Facility,3344656.626,1766.821,LIG,99.8969,not reported,28,19.0,33.3761,-89.2183
55245.0,18.0,45801.315,0.4335302183572677,40.0,"['BIT', 'BIT', 'BIT']",3,2009,0,Tuscola Station,44710.207,1645.8312,BIT,97.6177,not reported,17,41.0,39.7983,-88.3501
55479.0,88.0,719103.0,0.9328,6.0,['SUB'],1,2009,0,Wygen 1,718217.214,568.285,SUB,99.8768,not reported,56,5.0,44.2862,-105.3843
55638.0,2.0,1734.0,0.099,9.0,['SUB'],1,2009,0,Walhalla,1734.0,26.1321,SUB,100.0,not reported,38,67.0,48.9,-97.9
55749.0,115.7,790037.0,0.7795,3.0,['SUB'],1,2009,0,Hardin Generator Project,790037.0,493.592,SUB,100.0,not reported,30,3.0,45.7578,-107.6
56068.0,615.0,0.0,0.0,-1.0,['BIT'],1,2009,0,Elm Road Generating Station,187902.6014,17.163,BIT,100.0,not reported,55,79.0,42.8445,-87.829
56163.0,182.0,837959.0,0.5289727806491725,58.82967032967031,"['BIT', 'BIT', 'BIT', 'BIT']",4,2009,0,KUCC,831132.096,2954.8314,BIT,81.4395,not reported,49,35.0,40.7119,-112.1225
56224.0,242.0,1169957.0,0.5519,1.0,['SUB'],1,2009,0,TS Power Plant,1163049.813,251.111,SUB,99.4096,not reported,32,11.0,40.7458,-116.5297
56319.0,95.0,766943.0,0.9216,1.0,['SUB'],1,2009,0,Wygen 2,763488.376,239.965,SUB,99.5496,not reported,56,5.0,44.2911,-105.3815
56785.0,6.3,26359.75,0.4776,33.0,['BIT'],1,2009,0,Virginia Tech Power Plant,26359.75,124.7495,BIT,100.0,not reported,51,121.0,37.2319,-80.4211
56848.0,67.0,297246.0,0.5065,1.0,['BIT'],1,2009,0,Haverhill North Cogeneration Facility,297246.0,115.9924,BIT,100.0,not reported,39,145.0,38.5961,-82.8394
3.0,1770.7,7834332.0,0.5239413058956399,44.239057999661554,"['BIT', 'BIT', 'BIT', 'BIT', 'BIT']",5,2010,"['NG', 'NG']",Barry,7749280.005,18567.237,BIT,51.0194,not reported,1,97.0,31.0069,-88.0103
7.0,138.0,229660.0,0.19508939083863103,61.0,"['BIT', 'BIT']",2,2010,0,Gadsden,217945.182,2624.5053,BIT,94.8991,not reported,1,55.0,34.0128,-85.9708
8.0,1416.7,6875509.0,0.6117455989658367,45.61671490082608,"['BIT', 'BIT', 'BIT', 'BIT', 'BIT']",5,2010,0,Gorgas,6864659.286,7601.531,BIT,99.8422,not reported,1,127.0,33.6446,-87.2003
10.0,568.4,2730315.0,0.5515251128532788,44.52638986629131,"['BIT', 'BIT']",2,2010,0,Greene County,2713806.786,33627.55,BIT,97.4818,not reported,1,63.0,32.6017,-87.7811
26.0,2012.8,9592470.0,0.5826187854744398,43.0,"['BIT', 'BIT', 'BIT', 'BIT', 'BIT']",5,2010,['DFO'],E C Gaston,9572401.638,73141.5183,BIT,99.7835,not reported,1,117.0,33.2442,-86.4567
47.0,1350.0,6035477.0,0.5343393694814842,50.92592592592587,"['BIT', 'BIT', 'BIT', 'BIT', 'BIT']",5,2010,0,Colbert,5993857.426,23182.686,BIT,99.2536,not reported,1,33.0,34.7439,-87.8486
50.0,1968.6,5702492.0,0.5115144099632231,51.3820989535709,"['BIT', 'BIT', 'BIT', 'BIT', 'BIT', 'BIT', 'BIT', 'BIT']",8,2010,0,Widows Creek,5691435.542,10981.956,BIT,99.8061,not reported,1,71.0,34.8825,-85.7547
51.0,720.7,4694520.0,0.7436,23.999999999999773,['LIG'],1,2010,0,Dolet Hills,4684963.161,21231.788,LIG,99.7964,not reported,22,31.0,32.0306,-93.5692
56.0,538.0,3176973.0,0.7027940449918838,32.226765799256555,"['BIT', 'BIT', 'BIT']",3,2010,0,Charles R Lowman,3166801.172,6660.79,BIT,99.6798,not reported,1,129.0,31.4858,-87.9106
59.0,109.8,563562.0,0.5859,28.0,['SUB'],1,2010,0,Platte,563562.0,2365.115,SUB,100.0,not reported,31,79.0,40.8538,-98.3481
60.0,324.3,474439.0,0.7098,6.058279370952732,"['SUB', 'SUB']",2,2010,0,Whelan Energy Center,474136.71,2300.674,SUB,99.9363,not reported,31,1.0,40.5806,-98.3106
